%time,field.header.seq,field.header.stamp,field.set_point,field.process_value,field.process_value_dot,field.process_value_filtered,field.process_value_dot_filtered,field.commanded_velocity,field.error,field.time_step,field.command,field.measured_effort,field.friction_compensation,field.position_p,field.position_i,field.position_d,field.position_i_clamp,field.velocity_p,field.velocity_i,field.velocity_d,field.velocity_i_clamp
1354210903019192963,3156,1354210903019192963,9.79717439318e-17,-0.0273350928745,0.0294376580501,-0.0273702224788,0.00708638800043,0.0,0.0273702224788,0.000997579,20.6921251024,1.40897026704,0.0,-800.0,-40.0,-180.0,4.0,0.0,0.0,0.0,0.0
1354210903029211645,3157,1354210903029211645,9.79717439318e-17,-0.0272938834739,-0.017505114878,-0.0272801186774,0.00393804367231,0.0,0.0272801186774,0.000998139,0.0,1.77368650174,0.0,-800.0,-40.0,-180.0,4.0,0.0,0.0,0.0,0.0
1354210903039209520,3158,1354210903039209520,9.79717439318e-17,-0.0273419069662,-0.016501935134,-0.0273144829283,-0.00497828310525,0.0,0.0273144829283,0.001012006,0.0,1.74681675134,0.0,-800.0,-40.0,-180.0,4.0,0.0,0.0,0.0,0.0
1354210903049211141,3159,1354210903049211141,9.79717439318e-17,-0.0273489721126,-0.000965640468814,-0.0273503094334,-0.000797620820327,0.0,0.0273503094334,0.000997364,0.0,1.72117147539,0.0,-800.0,-40.0,-180.0,4.0,0.0,0.0,0.0,0.0
1354210903059176569,3160,1354210903059176569,9.79717439318e-17,-0.0274023386887,0.000106853719841,-0.0273776203521,-0.00535192587027,0.0,0.0273776203521,0.000966305,0.0,1.62847417084,0.0,-800.0,-40.0,-180.0,4.0,0.0,0.0,0.0,0.0
1354210903069181916,3161,1354210903069181916,9.79717439318e-17,-0.0274719394437,0.00150236480299,-0.0274533344992,-0.00692418723657,0.0,0.0274533344992,0.000982199,0.0,1.51455122933,0.0,-800.0,-40.0,-180.0,4.0,0.0,0.0,0.0,0.0
1354210903079199162,3162,1354210903079199162,9.79717439318e-17,-0.0275529668659,-0.0276162880923,-0.0275401189888,-0.00804980567457,0.0,0.0275401189888,0.001002074,0.0,1.45703201409,0.0,-800.0,-40.0,-180.0,4.0,0.0,0.0,0.0,0.0
1354210903089211512,3163,1354210903089211512,9.79717439318e-17,-0.027561036906,0.0186879553411,-0.0275932613772,-0.00088331172521,0.0,0.0275932613772,0.001003635,0.0,1.37408811507,0.0,-800.0,-40.0,-180.0,4.0,0.0,0.0,0.0,0.0
1354210903099212242,3164,1354210903099212242,9.79717439318e-17,-0.0276018676213,-0.0112516018482,-0.0275913096711,-0.00399240987747,0.0,0.0275913096711,0.00100143,0.0,1.38081795484,0.0,-800.0,-40.0,-180.0,4.0,0.0,0.0,0.0,0.0
1354210903109223647,3165,1354210903109223647,9.79717439318e-17,-0.0275942724874,-0.0114060652387,-0.0275832028959,0.000797346613309,0.0,0.0275832028959,0.001026655,0.0,1.38360885374,0.0,-800.0,-40.0,-180.0,4.0,0.0,0.0,0.0,0.0
1354210903119194313,3166,1354210903119194313,9.79717439318e-17,-0.0275176608361,0.0331319887406,-0.0275509695229,0.00780639625575,0.0,0.0275509695229,0.000998737,21.0512412779,1.4185073778,0.0,-800.0,-40.0,-180.0,4.0,0.0,0.0,0.0,0.0
1354210903129212394,3167,1354210903129212394,9.79717439318e-17,-0.0275099919013,-0.0131301306591,-0.0275049860979,0.000679536552869,0.0,0.0275049860979,0.001014326,0.0,1.61649727498,0.0,-800.0,-40.0,-180.0,4.0,0.0,0.0,0.0,0.0
1354210903139210405,3168,1354210903139210405,9.79717439318e-17,-0.0274361317944,0.0161173438217,-0.0274537131546,0.00743097707571,0.0,0.0274537131546,0.001012745,20.8623122682,1.53980802129,0.0,-800.0,-40.0,-180.0,4.0,0.0,0.0,0.0,0.0
1354210903149230570,3169,1354210903149230570,9.79717439318e-17,-0.0274685905932,0.0167817883244,-0.0274782850966,-0.00325341790156,0.0,0.0274782850966,0.001017759,0.0,1.51395099411,0.0,-800.0,-40.0,-180.0,4.0,0.0,0.0,0.0,0.0
1354210903159184911,3170,1354210903159184911,9.79717439318e-17,-0.0275257893853,-0.0281690307658,-0.0274877366025,-0.00586246184423,0.0,0.0274877366025,0.00096927,0.0,1.72511578201,0.0,-800.0,-40.0,-180.0,4.0,0.0,0.0,0.0,0.0
1354210903169177322,3171,1354210903169177322,9.79717439318e-17,-0.0275157144426,0.0023824141598,-0.0275203428109,0.000981166270598,0.0,0.0275203428109,0.000966279,0.0,1.55970981757,0.0,-800.0,-40.0,-180.0,4.0,0.0,0.0,0.0,0.0
1354210903179180043,3172,1354210903179180043,9.79717439318e-17,-0.0274837611434,-0.0443669258718,-0.0274560133425,0.00304300358728,0.0,0.0274560133425,0.000984156,0.0,1.38319355579,0.0,-800.0,-40.0,-180.0,4.0,0.0,0.0,0.0,0.0
1354210903189191324,3173,1354210903189191324,9.79717439318e-17,-0.0275223211358,0.00254546537719,-0.0275212615761,-0.00390744755927,0.0,0.0275212615761,0.000981883,0.0,1.31366360023,0.0,-800.0,-40.0,-180.0,4.0,0.0,0.0,0.0,0.0
1354210903199210830,3174,1354210903199210830,9.79717439318e-17,-0.0275340748344,-0.0279689187392,-0.0275018159869,-0.00119825831401,0.0,0.0275018159869,0.000999847,0.0,1.25423607766,0.0,-800.0,-40.0,-180.0,4.0,0.0,0.0,0.0,0.0
1354210903209224648,3175,1354210903209224648,9.79717439318e-17,-0.0274925845171,0.0019395196579,-0.0275058261112,0.00412790124862,0.0,0.0275058261112,0.001026673,0.0,1.2475377515,0.0,-800.0,-40.0,-180.0,4.0,0.0,0.0,0.0,0.0
1354210903219193896,3176,1354210903219193896,9.79717439318e-17,-0.0274672223117,0.00138631552684,-0.027457650983,0.00279638019582,0.0,0.027457650983,0.000998445,0.0,1.24047242697,0.0,-800.0,-40.0,-180.0,4.0,0.0,0.0,0.0,0.0
1354210903229213686,3177,1354210903229213686,9.79717439318e-17,-0.0274594685561,-0.0141350976848,-0.0274368940509,0.000743607155623,0.0,0.0274368940509,0.001012528,0.0,1.23052798831,0.0,-800.0,-40.0,-180.0,4.0,0.0,0.0,0.0,0.0
1354210903239209755,3178,1354210903239209755,9.79717439318e-17,-0.0274437768581,0.0317026541012,-0.0274683239129,0.00142162050305,0.0,0.0274683239129,0.001013532,0.0,1.18874758949,0.0,-800.0,-40.0,-180.0,4.0,0.0,0.0,0.0,0.0
1354210903249215464,3179,1354210903249215464,9.79717439318e-17,-0.0274739299125,0.016935621044,-0.0274834121144,-0.00298902644356,0.0,0.0274834121144,0.000996173,0.0,1.30696252356,0.0,-800.0,-40.0,-180.0,4.0,0.0,0.0,0.0,0.0
1354210903259195018,3180,1354210903259195018,9.79717439318e-17,-0.0274705977945,0.0322308623297,-0.0275051703536,0.000434142465585,0.0,0.0275051703536,0.000999664,0.0,1.25138562587,0.0,-800.0,-40.0,-180.0,4.0,0.0,0.0,0.0,0.0
1354210903269176049,3181,1354210903269176049,9.79717439318e-17,-0.0274578300432,-0.0141248941613,-0.0274540714469,0.00109980012341,0.0,0.0274540714469,0.000980276,0.0,1.12935983047,0.0,-800.0,-40.0,-180.0,4.0,0.0,0.0,0.0,0.0
1354210903279181847,3182,1354210903279181847,9.79717439318e-17,-0.0275154172261,0.0177621520168,-0.0275196827358,-0.00552306696048,0.0,0.0275196827358,0.000959037,0.0,1.10590281157,0.0,-800.0,-40.0,-180.0,4.0,0.0,0.0,0.0,0.0
1354210903289190441,3183,1354210903289190441,9.79717439318e-17,-0.0275107686802,0.0176437660811,-0.0275054641574,0.000640433483947,0.0,0.0275054641574,0.000966955,0.0,1.08572239881,0.0,-800.0,-40.0,-180.0,4.0,0.0,0.0,0.0,0.0
1354210903299212498,3184,1354210903299212498,9.79717439318e-17,-0.0275282767827,0.00260585271938,-0.0275305558992,-0.00174945967217,0.0,0.0275305558992,0.001004106,0.0,1.14759412044,0.0,-800.0,-40.0,-180.0,4.0,0.0,0.0,0.0,0.0
1354210903309214558,3185,1354210903309214558,9.79717439318e-17,-0.0274515589816,0.016442256795,-0.0274636474412,0.00758749745703,0.0,0.0274636474412,0.001018869,20.9239145541,1.12083756361,0.0,-800.0,-40.0,-180.0,4.0,0.0,0.0,0.0,0.0
1354210903319196459,3186,1354210903319196459,9.79717439318e-17,-0.0274696847503,0.001448412764,-0.0274695275448,-0.00175813347926,0.0,0.0274695275448,0.000987559,0.0,1.09896694834,0.0,-800.0,-40.0,-180.0,4.0,0.0,0.0,0.0,0.0
1354210903329194352,3187,1354210903329194352,9.79717439318e-17,-0.0273447521014,-0.000482681431452,-0.0273512178379,0.00773138002569,0.0,0.0273512178379,0.000994617,20.9123687082,1.11729364157,0.0,-800.0,-40.0,-180.0,4.0,0.0,0.0,0.0,0.0
1354210903339230125,3188,1354210903339230125,9.79717439318e-17,-0.0273665693465,-0.0155234437151,-0.0273617002912,-0.00170380721436,0.0,0.0273617002912,0.001010942,0.0,1.05442584532,0.0,-800.0,-40.0,-180.0,4.0,0.0,0.0,0.0,0.0
1354210903349211726,3189,1354210903349211726,9.79717439318e-17,-0.0274129287505,0.000668248572177,-0.0274136580909,-0.00403803084549,0.0,0.0274136580909,0.001000436,0.0,1.12002732079,0.0,-800.0,-40.0,-180.0,4.0,0.0,0.0,0.0,0.0
1354210903359177144,3190,1354210903359177144,9.79717439318e-17,-0.027342016672,0.0145349521807,-0.0273519906337,0.00744956280187,0.0,0.0273519906337,0.000967143,20.811919845,1.10197804854,0.0,-800.0,-40.0,-180.0,4.0,0.0,0.0,0.0,0.0
1354210903369178164,3191,1354210903369178164,9.79717439318e-17,-0.0272936181436,-0.01724739188,-0.0273110032059,0.00517001034271,0.0,0.0273110032059,0.000982144,0.0,1.08349098792,0.0,-800.0,-40.0,-180.0,4.0,0.0,0.0,0.0,0.0
1354210903379183532,3192,1354210903379183532,9.79717439318e-17,-0.0274886490635,-0.013349905866,-0.0274677960397,-0.0192594708011,0.0,0.0274677960397,0.000977135,0.0,1.13717738098,0.0,-800.0,-40.0,-180.0,4.0,0.0,0.0,0.0,0.0
1354210903389193725,3193,1354210903389193725,9.79717439318e-17,-0.0275251508903,0.00275701837844,-0.0275117844933,-0.00362443045563,0.0,0.0275117844933,0.00099792,0.0,1.1455524536,0.0,-800.0,-40.0,-180.0,4.0,0.0,0.0,0.0,0.0
1354210903399215169,3194,1354210903399215169,9.79717439318e-17,-0.0274920159267,0.0020596138672,-0.027470923015,0.00344655282328,0.0,0.027470923015,0.001005334,0.0,1.42063924273,0.0,-800.0,-40.0,-180.0,4.0,0.0,0.0,0.0,0.0
1354210903409210300,3195,1354210903409210300,9.79717439318e-17,-0.0274502422818,-0.029540693538,-0.0274297563396,0.00426729597645,0.0,0.0274297563396,0.001012738,0.0,1.64944894817,0.0,-800.0,-40.0,-180.0,4.0,0.0,0.0,0.0,0.0
1354210903419195731,3196,1354210903419195731,9.79717439318e-17,-0.0274715926212,-0.0137848894378,-0.027452706248,-0.00193034027662,0.0,0.027452706248,0.0009857,0.0,1.83260070986,0.0,-800.0,-40.0,-180.0,4.0,0.0,0.0,0.0,0.0
1354210903429218237,3197,1354210903429218237,9.79717439318e-17,-0.0273474694021,0.0298042868155,-0.0273896778743,0.0125053278536,0.0,0.0273896778743,0.001013454,22.641168528,1.8252945574,0.0,-800.0,-40.0,-180.0,4.0,0.0,0.0,0.0,0.0
1354210903439211059,3198,1354210903439211059,9.79717439318e-17,-0.0272549132678,0.0125638516733,-0.027286669196,0.00920300050283,0.0,0.027286669196,0.001013653,21.4028063536,1.67088791581,0.0,-800.0,-40.0,-180.0,4.0,0.0,0.0,0.0,0.0
1354210903449212712,3199,1354210903449212712,9.79717439318e-17,-0.0272544716456,-0.01821729983,-0.0272546198747,0.00018383958622,0.0,0.0272546198747,0.001000688,0.0,1.54925572046,0.0,-800.0,-40.0,-180.0,4.0,0.0,0.0,0.0,0.0
1354210903459177403,3200,1354210903459177403,9.79717439318e-17,-0.027189632281,-0.00416576634163,-0.0271780712026,0.00655008976189,0.0,0.0271780712026,0.000981954,20.3923423966,1.3722690137,0.0,-800.0,-40.0,-180.0,4.0,0.0,0.0,0.0,0.0
1354210903469190565,3201,1354210903469190565,9.79717439318e-17,-0.0273087940242,-0.017124071311,-0.0272927363219,-0.0119844771405,0.0,0.0272927363219,0.00099587,0.0,1.23514463088,0.0,-800.0,-40.0,-180.0,4.0,0.0,0.0,0.0,0.0
1354210903479184619,3202,1354210903479184619,9.79717439318e-17,-0.0272388832635,-0.00315315027974,-0.0272606009283,0.00698190984296,0.0,0.0272606009283,0.000977273,20.5932428527,1.19255047408,0.0,-800.0,-40.0,-180.0,4.0,0.0,0.0,0.0,0.0
1354210903489174834,3203,1354210903489174834,9.79717439318e-17,-0.0272115504778,-0.00370316472919,-0.0272227049609,0.00268727773541,0.0,0.0272227049609,0.000968403,0.0,1.23030048862,0.0,-800.0,-40.0,-180.0,4.0,0.0,0.0,0.0,0.0
1354210903499214032,3204,1354210903499214032,9.79717439318e-17,-0.0272581701487,-0.00276724636072,-0.0272649542959,-0.0046845417099,0.0,0.0272649542959,0.001002653,0.0,1.50254898307,0.0,-800.0,-40.0,-180.0,4.0,0.0,0.0,0.0,0.0
1354210903509210943,3205,1354210903509210943,9.79717439318e-17,-0.0272033182582,0.0114736846204,-0.0272235656152,0.00562440123347,0.0,0.0272235656152,0.001013106,20.0863414537,1.44913521233,0.0,-800.0,-40.0,-180.0,4.0,0.0,0.0,0.0,0.0
1354210903519201913,3206,1354210903519201913,9.79717439318e-17,-0.0273496601979,-0.0316837298505,-0.0273192974568,-0.0147047401212,0.0,0.0273192974568,0.000999757,0.0,1.36477905635,0.0,-800.0,-40.0,-180.0,4.0,0.0,0.0,0.0,0.0
1354210903529212883,3207,1354210903529212883,9.79717439318e-17,-0.0273114503914,0.0136729783407,-0.0273426462938,0.00381524063411,0.0,0.0273426462938,0.001018005,0.0,1.18490071885,0.0,-800.0,-40.0,-180.0,4.0,0.0,0.0,0.0,0.0
1354210903539210577,3208,1354210903539210577,9.79717439318e-17,-0.027343449792,-0.00103043241078,-0.0273260400529,-0.00342228215339,0.0,0.0273260400529,0.001014342,0.0,1.08213362558,0.0,-800.0,-40.0,-180.0,4.0,0.0,0.0,0.0,0.0
1354210903549213183,3209,1354210903549213183,9.79717439318e-17,-0.0273539168645,-0.000831021090619,-0.027352132195,-0.00101327329994,0.0,0.027352132195,0.001002084,0.0,1.06724245215,0.0,-800.0,-40.0,-180.0,4.0,0.0,0.0,0.0,0.0
1354210903559176608,3210,1354210903559176608,9.79717439318e-17,-0.0273845894314,0.0305171870585,-0.0274120645554,-0.00301328798896,0.0,0.0274120645554,0.000980571,0.0,0.982124955422,0.0,-800.0,-40.0,-180.0,4.0,0.0,0.0,0.0,0.0
1354210903569177784,3211,1354210903569177784,9.79717439318e-17,-0.0273543260206,0.045245610175,-0.0274017163865,0.0031857417816,0.0,0.0274017163865,0.000968125,0.0,0.985365427635,0.0,-800.0,-40.0,-180.0,4.0,0.0,0.0,0.0,0.0
1354210903579216763,3212,1354210903579216763,9.79717439318e-17,-0.0274210002056,-0.0302998873129,-0.0273899782675,-0.00659859708151,0.0,0.0273899782675,0.001006604,0.0,1.06021412131,0.0,-800.0,-40.0,-180.0,4.0,0.0,0.0,0.0,0.0
1354210903589177830,3213,1354210903589177830,9.79717439318e-17,-0.02739182002,-0.000138922604846,-0.0273729920184,0.00287331489994,0.0,0.0273729920184,0.000999853,0.0,1.04933678892,0.0,-800.0,-40.0,-180.0,4.0,0.0,0.0,0.0,0.0
1354210903599212957,3214,1354210903599212957,9.79717439318e-17,-0.0274287858747,-0.0147547185736,-0.0274360502754,-0.00378961483874,0.0,0.0274360502754,0.001002726,0.0,1.04036602,0.0,-800.0,-40.0,-180.0,4.0,0.0,0.0,0.0,0.0
1354210903609216608,3215,1354210903609216608,9.79717439318e-17,-0.0275172031076,0.0177771203699,-0.0275257074412,-0.00882910790824,0.0,0.0275257074412,0.001012871,0.0,1.03772474315,0.0,-800.0,-40.0,-180.0,4.0,0.0,0.0,0.0,0.0
1354210903619196027,3216,1354210903619196027,9.79717439318e-17,-0.0275658404311,-0.0273643342318,-0.0275505301083,-0.00487020730514,0.0,0.0275505301083,0.001000522,0.0,1.10480007934,0.0,-800.0,-40.0,-180.0,4.0,0.0,0.0,0.0,0.0
1354210903629198346,3217,1354210903629198346,9.79717439318e-17,-0.0275670757197,-0.0119751918638,-0.0275487405662,-8.23796919525e-05,0.0,0.0275487405662,0.000998462,0.0,1.08579283633,0.0,-800.0,-40.0,-180.0,4.0,0.0,0.0,0.0,0.0
1354210903639184313,3218,1354210903639184313,9.79717439318e-17,-0.0275298433018,-0.0434643358208,-0.0274941795337,0.00369624894218,0.0,0.0274941795337,0.000999823,0.0,1.03132357704,0.0,-800.0,-40.0,-180.0,4.0,0.0,0.0,0.0,0.0
1354210903649188049,3219,1354210903649188049,9.79717439318e-17,-0.0273932911871,0.0306556733196,-0.027436832485,0.0137467530598,0.0,0.027436832485,0.000989929,23.1109186468,1.02564399102,0.0,-800.0,-40.0,-180.0,4.0,0.0,0.0,0.0,0.0
1354210903659166695,3220,1354210903659166695,9.79717439318e-17,-0.0274180514563,0.000411307072221,-0.0274282712114,-0.00248412514966,0.0,0.0274282712114,0.000982277,0.0,1.05597419815,0.0,-800.0,-40.0,-180.0,4.0,0.0,0.0,0.0,0.0
1354210903669167849,3221,1354210903669167849,9.79717439318e-17,-0.0273894734995,-0.00013990096461,-0.0273672402793,0.00267890793947,0.0,0.0273672402793,0.000969338,0.0,1.19415019452,0.0,-800.0,-40.0,-180.0,4.0,0.0,0.0,0.0,0.0
1354210903679188225,3222,1354210903679188225,9.79717439318e-17,-0.0273274969487,-0.0321464837488,-0.0273084117319,0.0062228215523,0.0,0.0273084117319,0.001003436,20.3482427927,1.48779806554,0.0,-800.0,-40.0,-180.0,4.0,0.0,0.0,0.0,0.0
1354210903689180952,3223,1354210903689180952,9.79717439318e-17,-0.0273038716855,0.0134892546377,-0.0272904446333,0.00240989049751,0.0,0.0272904446333,0.000983861,0.0,1.46948256427,0.0,-800.0,-40.0,-180.0,4.0,0.0,0.0,0.0,0.0
1354210903699189686,3224,1354210903699189686,9.79717439318e-17,-0.0273505197021,-0.0163255744376,-0.0273390666206,-0.00461138176739,0.0,0.0273390666206,0.000988795,0.0,1.45445725864,0.0,-800.0,-40.0,-180.0,4.0,0.0,0.0,0.0,0.0
1354210903709184597,3225,1354210903709184597,9.79717439318e-17,-0.0273909244812,-0.0308641081082,-0.0273498596924,-0.00411376168269,0.0,0.0273498596924,0.00099965,0.0,1.32936726805,0.0,-800.0,-40.0,-180.0,4.0,0.0,0.0,0.0,0.0
1354210903719183831,3226,1354210903719183831,9.79717439318e-17,-0.0273262556845,0.0293174164875,-0.0273424326629,0.00655390270675,0.0,0.0273424326629,0.000998434,20.4858814857,1.37569792186,0.0,-800.0,-40.0,-180.0,4.0,0.0,0.0,0.0,0.0
1354210903729196722,3227,1354210903729196722,9.79717439318e-17,-0.0273172486977,0.0137607508182,-0.0272982409617,0.000900102618848,0.0,0.0272982409617,0.000998964,0.0,1.34375222835,0.0,-800.0,-40.0,-180.0,4.0,0.0,0.0,0.0,0.0
1354210903739185076,3228,1354210903739185076,9.79717439318e-17,-0.0272791412277,-0.00238760408712,-0.0272711612625,0.00385017480148,0.0,0.0272711612625,0.001002864,0.0,1.31921064341,0.0,-800.0,-40.0,-180.0,4.0,0.0,0.0,0.0,0.0
1354210903749194479,3229,1354210903749194479,9.79717439318e-17,-0.0272846185588,-0.00227667839861,-0.0272925649314,-0.000589535859552,0.0,0.0272925649314,0.001010044,0.0,1.26130026891,0.0,-800.0,-40.0,-180.0,4.0,0.0,0.0,0.0,0.0
1354210903759166742,3230,1354210903759166742,9.79717439318e-17,-0.027372939343,0.0148560046403,-0.0273750735137,-0.00866670489904,0.0,0.0273750735137,0.000982618,0.0,1.14140021974,0.0,-800.0,-40.0,-180.0,4.0,0.0,0.0,0.0,0.0
1354210903769166642,3231,1354210903769166642,9.79717439318e-17,-0.0273617383526,0.0146377168153,-0.0273819537089,0.0010670364455,0.0,0.0273819537089,0.000967646,0.0,1.15436240013,0.0,-800.0,-40.0,-180.0,4.0,0.0,0.0,0.0,0.0
1354210903779187611,3232,1354210903779187611,9.79717439318e-17,-0.0273277156332,-0.00142856467556,-0.0273371814475,0.00337898733109,0.0,0.0273371814475,0.001002823,0.0,1.16233610874,0.0,-800.0,-40.0,-180.0,4.0,0.0,0.0,0.0,0.0
1354210903789188270,3233,1354210903789188270,9.79717439318e-17,-0.0273431448462,-0.00110470999577,-0.027334692618,-0.00160291438064,0.0,0.027334692618,0.001000167,0.0,1.166297171,0.0,-800.0,-40.0,-180.0,4.0,0.0,0.0,0.0,0.0
1354210903799152428,3234,1354210903799152428,9.79717439318e-17,-0.0274057339472,0.000159242047166,-0.0274151835902,-0.0061735860099,0.0,0.0274151835902,0.000985629,0.0,1.17458054439,0.0,-800.0,-40.0,-180.0,4.0,0.0,0.0,0.0,0.0
1354210903809182843,3235,1354210903809182843,9.79717439318e-17,-0.0273640604112,-0.0160362650298,-0.027359564757,0.00404165472475,0.0,0.027359564757,0.000999648,0.0,1.21352932434,0.0,-800.0,-40.0,-180.0,4.0,0.0,0.0,0.0,0.0
1354210903819167444,3236,1354210903819167444,9.79717439318e-17,-0.0274551284146,-0.0142146519591,-0.0274388371204,-0.00905699207839,0.0,0.0274388371204,0.000969176,0.0,1.20986503722,0.0,-800.0,-40.0,-180.0,4.0,0.0,0.0,0.0,0.0
1354210903829186829,3237,1354210903829186829,9.79717439318e-17,-0.0275510486612,0.0184540780115,-0.0275636822108,-0.0094581840006,0.0,0.0275636822108,0.000980086,0.0,1.13813620385,0.0,-800.0,-40.0,-180.0,4.0,0.0,0.0,0.0,0.0
1354210903839189521,3238,1354210903839189521,9.79717439318e-17,-0.0275067517186,0.0021919576412,-0.0275331578742,0.00438535423393,0.0,0.0275331578742,0.000995437,0.0,1.04683102246,0.0,-800.0,-40.0,-180.0,4.0,0.0,0.0,0.0,0.0
1354210903849213825,3239,1354210903849213825,9.79717439318e-17,-0.0274701071515,0.0168179883558,-0.0274981141447,0.00372362866556,0.0,0.0274981141447,0.000991726,0.0,0.928045662972,0.0,-800.0,-40.0,-180.0,4.0,0.0,0.0,0.0,0.0
1354210903859206315,3240,1354210903859206315,9.79717439318e-17,-0.0275080763368,-0.0131381512211,-0.0275124478515,-0.00386317190509,0.0,0.0275124478515,0.000985219,0.0,0.941080613249,0.0,-800.0,-40.0,-180.0,4.0,0.0,0.0,0.0,0.0
1354210903869207799,3241,1354210903869207799,9.79717439318e-17,-0.0275454864831,-0.0123666918109,-0.0275236709675,-0.00378028720793,0.0,0.0275236709675,0.000980313,0.0,0.954605783694,0.0,-800.0,-40.0,-180.0,4.0,0.0,0.0,0.0,0.0
1354210903879230924,3242,1354210903879230924,9.79717439318e-17,-0.0275639545149,-0.0119772037041,-0.0275395081594,-0.00188400666497,0.0,0.0275395081594,0.001002918,0.0,1.27654507787,0.0,-800.0,-40.0,-180.0,4.0,0.0,0.0,0.0,0.0
1354210903889208165,3243,1354210903889208165,9.79717439318e-17,-0.027505416227,0.00218310855395,-0.0275127164246,0.00605170721559,0.0,0.0275127164246,0.000968797,20.4015366817,1.37350509267,0.0,-800.0,-40.0,-180.0,4.0,0.0,0.0,0.0,0.0
1354210903899223704,3244,1354210903899223704,9.79717439318e-17,-0.0274673927743,-0.0139506398793,-0.02748273549,0.00372521422887,0.0,0.02748273549,0.000984029,0.0,1.62770672948,0.0,-800.0,-40.0,-180.0,4.0,0.0,0.0,0.0,0.0
1354210903909239270,3245,1354210903909239270,9.79717439318e-17,-0.0274873155996,0.0325670902025,-0.0275386183325,-0.00200604818469,0.0,0.0275386183325,0.001015286,0.0,1.58360158725,0.0,-800.0,-40.0,-180.0,4.0,0.0,0.0,0.0,0.0
1354210903919224670,3246,1354210903919224670,9.79717439318e-17,-0.0273715654266,0.0302152844891,-0.0274143114422,0.0116599915955,0.0,0.0274143114422,0.000984614,22.3529482573,1.47794710198,0.0,-800.0,-40.0,-180.0,4.0,0.0,0.0,0.0,0.0
1354210903929224239,3247,1354210903929224239,9.79717439318e-17,-0.027419036985,-0.0149729799639,-0.0274194481184,-0.00462740320525,0.0,0.0274194481184,0.001014164,0.0,1.3566522752,0.0,-800.0,-40.0,-180.0,4.0,0.0,0.0,0.0,0.0
1354210903939218383,3248,1354210903939218383,9.79717439318e-17,-0.0273884998726,0.0151389691329,-0.0274039938408,0.00309365874757,0.0,0.0274039938408,0.00100147,0.0,1.29197857214,0.0,-800.0,-40.0,-180.0,4.0,0.0,0.0,0.0,0.0
1354210903949222602,3249,1354210903949222602,9.79717439318e-17,-0.027359692599,-0.0315470255224,-0.0273163540107,0.00286656192982,0.0,0.0273163540107,0.001027064,0.0,1.27344699582,0.0,-800.0,-40.0,-180.0,4.0,0.0,0.0,0.0,0.0
1354210903959180341,3250,1354210903959180341,9.79717439318e-17,-0.0273249618914,0.0292349851896,-0.0273435520409,0.00351023892008,0.0,0.0273435520409,0.000970586,0.0,1.59464207762,0.0,-800.0,-40.0,-180.0,4.0,0.0,0.0,0.0,0.0
1354210903969183813,3251,1354210903969183813,9.79717439318e-17,-0.0272652758742,0.0126563542633,-0.0272908991087,0.00595593513868,0.0,0.0272908991087,0.000982814,20.2428423894,1.56168941621,0.0,-800.0,-40.0,-180.0,4.0,0.0,0.0,0.0,0.0
1354210903979196980,3252,1354210903979196980,9.79717439318e-17,-0.0274017520244,-0.0153431186431,-0.0273737565243,-0.0135161198425,0.0,0.0273737565243,0.001001831,0.0,1.48885776082,0.0,-800.0,-40.0,-180.0,4.0,0.0,0.0,0.0,0.0
1354210903989192051,3253,1354210903989192051,9.79717439318e-17,-0.0273499741117,-0.0471259511918,-0.0273293911814,0.00503315200391,0.0,0.0273293911814,0.00098177,0.0,1.39603703561,0.0,-800.0,-40.0,-180.0,4.0,0.0,0.0,0.0,0.0
1354210903999196090,3254,1354210903999196090,9.79717439318e-17,-0.0274974461238,-0.013384426478,-0.0274610382656,-0.0147740299745,0.0,0.0274610382656,0.000999519,0.0,1.35982777289,0.0,-800.0,-40.0,-180.0,4.0,0.0,0.0,0.0,0.0
1354210904009210881,3255,1354210904009210881,9.79717439318e-17,-0.0275021866552,0.0174300581674,-0.0275440958731,-0.000354890873132,0.0,0.0275440958731,0.001013024,0.0,1.29451924976,0.0,-800.0,-40.0,-180.0,4.0,0.0,0.0,0.0,0.0
1354210904019197366,3256,1354210904019197366,9.79717439318e-17,-0.0274285181274,0.000553797108896,-0.0274517257373,0.00747670601275,0.0,0.0274517257373,0.000987674,20.8775680565,1.20801063597,0.0,-800.0,-40.0,-180.0,4.0,0.0,0.0,0.0,0.0
1354210904029197732,3257,1354210904029197732,9.79717439318e-17,-0.0273917860156,0.0151816196951,-0.0274260268573,0.00376513764625,0.0,0.0274260268573,0.001015953,0.0,1.17030798546,0.0,-800.0,-40.0,-180.0,4.0,0.0,0.0,0.0,0.0
1354210904039214081,3258,1354210904039214081,9.79717439318e-17,-0.0273771005447,-0.0158575448987,-0.0273790150015,0.0013994245768,0.0,0.0273790150015,0.001003741,0.0,1.14083834759,0.0,-800.0,-40.0,-180.0,4.0,0.0,0.0,0.0,0.0
1354210904049211769,3259,1354210904049211769,9.79717439318e-17,-0.0273516044789,-0.016362405161,-0.0273616708692,0.0025117294612,0.0,0.0273616708692,0.001012722,0.0,1.45666958178,0.0,-800.0,-40.0,-180.0,4.0,0.0,0.0,0.0,0.0
1354210904059183742,3260,1354210904059183742,9.79717439318e-17,-0.0273270806979,0.0139036311671,-0.0273582547956,0.00245458776915,0.0,0.0273582547956,0.000981788,0.0,1.40823842658,0.0,-800.0,-40.0,-180.0,4.0,0.0,0.0,0.0,0.0
1354210904069178494,3261,1354210904069178494,9.79717439318e-17,-0.0273373376898,0.0141103258167,-0.0273502813872,-0.000984087075212,0.0,0.0273502813872,0.000966748,0.0,1.40301424979,0.0,-800.0,-40.0,-180.0,4.0,0.0,0.0,0.0,0.0
1354210904079186172,3262,1354210904079186172,9.79717439318e-17,-0.0273087876152,-0.0018332951169,-0.0273020776783,0.00282352575833,0.0,0.0273020776783,0.000988692,0.0,1.43849351184,0.0,-800.0,-40.0,-180.0,4.0,0.0,0.0,0.0,0.0
1354210904089189246,3263,1354210904089189246,9.79717439318e-17,-0.0273655695848,-0.0160392123124,-0.0273454811095,-0.00574216127174,0.0,0.0273454811095,0.000980653,0.0,1.32525617964,0.0,-800.0,-40.0,-180.0,4.0,0.0,0.0,0.0,0.0
1354210904099195466,3264,1354210904099195466,9.79717439318e-17,-0.0274391702809,-0.0145442169362,-0.0274347605876,-0.00736327636198,0.0,0.0274347605876,0.000985823,0.0,1.30396850475,0.0,-800.0,-40.0,-180.0,4.0,0.0,0.0,0.0,0.0
1354210904109214370,3265,1354210904109214370,9.79717439318e-17,-0.0273947195694,-0.0154407692234,-0.0273786671923,0.00442159356713,0.0,0.0273786671923,0.001003841,0.0,1.17347706986,0.0,-800.0,-40.0,-180.0,4.0,0.0,0.0,0.0,0.0
1354210904119196358,3266,1354210904119196358,9.79717439318e-17,-0.0274239287807,0.000537015110672,-0.0274251115867,-0.00293871801339,0.0,0.0274251115867,0.000988125,0.0,1.14207913251,0.0,-800.0,-40.0,-180.0,4.0,0.0,0.0,0.0,0.0
1354210904129211073,3267,1354210904129211073,9.79717439318e-17,-0.027514382962,-0.0130236231839,-0.0275096505451,-0.00899377960215,0.0,0.0275096505451,0.001000969,0.0,1.18767854463,0.0,-800.0,-40.0,-180.0,4.0,0.0,0.0,0.0,0.0
1354210904139213631,3268,1354210904139213631,9.79717439318e-17,-0.0274910699957,-0.013505318045,-0.0275071552535,0.00235293876874,0.0,0.0275071552535,0.001000347,0.0,1.15365236401,0.0,-800.0,-40.0,-180.0,4.0,0.0,0.0,0.0,0.0
1354210904149205197,3269,1354210904149205197,9.79717439318e-17,-0.0273817289517,-0.000328553925491,-0.0273718091872,0.0108489403371,0.0,0.0273718091872,0.000988276,22.0392085368,1.16416256585,0.0,-800.0,-40.0,-180.0,4.0,0.0,0.0,0.0,0.0
1354210904159178279,3270,1354210904159178279,9.79717439318e-17,-0.0273723193702,-0.000533700334012,-0.0273649138646,0.000957553479881,0.0,0.0273649138646,0.000971008,0.0,1.10445522222,0.0,-800.0,-40.0,-180.0,4.0,0.0,0.0,0.0,0.0
1354210904169192864,3271,1354210904169192864,9.79717439318e-17,-0.0273345880622,-0.0320288409816,-0.0273288782661,0.00368810865019,0.0,0.0273288782661,0.000984176,0.0,1.39655821991,0.0,-800.0,-40.0,-180.0,4.0,0.0,0.0,0.0,0.0
1354210904179176473,3272,1354210904179176473,9.79717439318e-17,-0.0273926540524,-0.0462255941665,-0.0273424965153,-0.00586460581516,0.0,0.0273424965153,0.000983871,0.0,1.29247951213,0.0,-800.0,-40.0,-180.0,4.0,0.0,0.0,0.0,0.0
1354210904189165328,3273,1354210904189165328,9.79717439318e-17,-0.0274202015348,0.0158234515405,-0.0274209277063,-0.00258557597442,0.0,0.0274209277063,0.000969023,0.0,1.23949513266,0.0,-800.0,-40.0,-180.0,4.0,0.0,0.0,0.0,0.0
1354210904199198986,3274,1354210904199198986,9.79717439318e-17,-0.0274459748921,-0.0144167359677,-0.0274196674298,-0.0025038499678,0.0,0.0274196674298,0.001000939,0.0,1.19594840942,0.0,-800.0,-40.0,-180.0,4.0,0.0,0.0,0.0,0.0
1354210904209224535,3275,1354210904209224535,9.79717439318e-17,-0.0274375134826,0.0161808825649,-0.0274363558073,0.000752150323554,0.0,0.0274363558073,0.001007614,0.0,1.16039689324,0.0,-800.0,-40.0,-180.0,4.0,0.0,0.0,0.0,0.0
1354210904219199314,3276,1354210904219199314,9.79717439318e-17,-0.0274704336905,0.0168288591847,-0.0274735832255,-0.00323846427551,0.0,0.0274735832255,0.000995289,0.0,1.06162862379,0.0,-800.0,-40.0,-180.0,4.0,0.0,0.0,0.0,0.0
1354210904229185790,3277,1354210904229185790,9.79717439318e-17,-0.0274714660226,0.00148297684971,-0.0274651383092,-0.000115293113792,0.0,0.0274651383092,0.00099923,0.0,1.01551327878,0.0,-800.0,-40.0,-180.0,4.0,0.0,0.0,0.0,0.0
1354210904239191160,3278,1354210904239191160,9.79717439318e-17,-0.0273848770699,0.0151441777531,-0.0274094165105,0.008486021278,0.0,0.0274094165105,0.00098557,21.2150986111,1.04790280716,0.0,-800.0,-40.0,-180.0,4.0,0.0,0.0,0.0,0.0
1354210904249196655,3279,1354210904249196655,9.79717439318e-17,-0.0273445860091,0.0143449700955,-0.0273707324267,0.00396213419088,0.0,0.0273707324267,0.000999005,0.0,1.68920351199,0.0,-800.0,-40.0,-180.0,4.0,0.0,0.0,0.0,0.0
1354210904259180647,3280,1354210904259180647,9.79717439318e-17,-0.0273807651431,-0.0156781510658,-0.0273675959766,-0.00360920573817,0.0,0.0273675959766,0.000978163,0.0,1.94776172291,0.0,-800.0,-40.0,-180.0,4.0,0.0,0.0,0.0,0.0
1354210904269175527,3281,1354210904269175527,9.79717439318e-17,-0.0273275440387,0.0139846228977,-0.0273432781685,0.00544388892867,0.0,0.0273432781685,0.000975384,20.0888208159,1.92461583807,0.0,-800.0,-40.0,-180.0,4.0,0.0,0.0,0.0,0.0
1354210904279165478,3282,1354210904279165478,9.79717439318e-17,-0.0274099241922,0.0156046669262,-0.0274104314079,-0.00797429013727,0.0,0.0274104314079,0.000982102,0.0,1.82912505082,0.0,-800.0,-40.0,-180.0,4.0,0.0,0.0,0.0,0.0
1354210904289180143,3283,1354210904289180143,9.79717439318e-17,-0.0274366476616,-0.0145898820804,-0.0274134288249,-0.00281558295533,0.0,0.0274134288249,0.000983692,0.0,1.67862641171,0.0,-800.0,-40.0,-180.0,4.0,0.0,0.0,0.0,0.0
1354210904299198686,3284,1354210904299198686,9.79717439318e-17,-0.0274055509237,-0.0152061217506,-0.0273994382194,0.00305706866758,0.0,0.0273994382194,0.000997033,0.0,1.44350036728,0.0,-800.0,-40.0,-180.0,4.0,0.0,0.0,0.0,0.0
1354210904309184304,3285,1354210904309184304,9.79717439318e-17,-0.0274301881707,-0.014692878309,-0.0274157901253,-0.00256377835481,0.0,0.0274157901253,0.000998739,0.0,1.40081521061,0.0,-800.0,-40.0,-180.0,4.0,0.0,0.0,0.0,0.0
1354210904319185561,3286,1354210904319185561,9.79717439318e-17,-0.0274394745045,0.0162159215376,-0.0274414317096,-0.000743192584188,0.0,0.0274414317096,0.001001553,0.0,1.2937473071,0.0,-800.0,-40.0,-180.0,4.0,0.0,0.0,0.0,0.0
1354210904329195487,3287,1354210904329195487,9.79717439318e-17,-0.0274286380833,-0.0147472776621,-0.0274429501892,0.00105348831723,0.0,0.0274429501892,0.000981608,0.0,1.16225280658,0.0,-800.0,-40.0,-180.0,4.0,0.0,0.0,0.0,0.0
1354210904339199262,3288,1354210904339199262,9.79717439318e-17,-0.0273140622982,0.0136981555039,-0.0273234438081,0.011405709315,0.0,0.0273234438081,0.001009058,22.2111106021,1.06583485582,0.0,-800.0,-40.0,-180.0,4.0,0.0,0.0,0.0,0.0
1354210904349214469,3289,1354210904349214469,9.79717439318e-17,-0.0272212821298,-0.0189323832248,-0.0272135646269,0.00930134590447,0.0,0.0272135646269,0.001014475,21.3969931153,1.12615268548,0.0,-800.0,-40.0,-180.0,4.0,0.0,0.0,0.0,0.0
1354210904359161324,3290,1354210904359161324,9.79717439318e-17,-0.0273201470242,-0.0169152187059,-0.0272984200575,-0.0100674382123,0.0,0.0272984200575,0.000997563,0.0,1.07083379714,0.0,-800.0,-40.0,-180.0,4.0,0.0,0.0,0.0,0.0
1354210904369166604,3291,1354210904369166604,9.79717439318e-17,-0.0273086567898,0.0135928048954,-0.0273143766005,0.00119474835698,0.0,0.0273143766005,0.000984422,0.0,1.13230685454,0.0,-800.0,-40.0,-180.0,4.0,0.0,0.0,0.0,0.0
1354210904379166867,3292,1354210904379166867,9.79717439318e-17,-0.027411411927,0.000300387577864,-0.0273811585519,-0.0103080642956,0.0,0.0273811585519,0.001016762,0.0,0.930103234402,0.0,-800.0,-40.0,-180.0,4.0,0.0,0.0,0.0,0.0
1354210904389182550,3293,1354210904389182550,9.79717439318e-17,-0.0274218900385,0.0158843015674,-0.0274290359764,-0.00106679342215,0.0,0.0274290359764,0.000982064,0.0,0.942791637448,0.0,-800.0,-40.0,-180.0,4.0,0.0,0.0,0.0,0.0
1354210904399170214,3294,1354210904399170214,9.79717439318e-17,-0.0274478644838,0.0010172962905,-0.0274374478466,-0.00257912489007,0.0,0.0274374478466,0.000972252,0.0,0.95314968328,0.0,-800.0,-40.0,-180.0,4.0,0.0,0.0,0.0,0.0
1354210904409221832,3295,1354210904409221832,9.79717439318e-17,-0.0274549958064,-0.0142063664516,-0.0274322783527,-0.000824819714343,0.0,0.0274322783527,0.000999533,0.0,0.925929851607,0.0,-800.0,-40.0,-180.0,4.0,0.0,0.0,0.0,0.0
1354210904419228054,3296,1354210904419228054,9.79717439318e-17,-0.0274711275638,-0.0138611235209,-0.0274679704309,-0.00171269257125,0.0,0.0274679704309,0.000980401,0.0,0.939355323365,0.0,-800.0,-40.0,-180.0,4.0,0.0,0.0,0.0,0.0
1354210904429213557,3297,1354210904429213557,9.79717439318e-17,-0.0274595231345,0.00128701750491,-0.0274529048313,0.00111276713558,0.0,0.0274529048313,0.000999781,0.0,0.950351169768,0.0,-800.0,-40.0,-180.0,4.0,0.0,0.0,0.0,0.0
1354210904439212742,3298,1354210904439212742,9.79717439318e-17,-0.0274431241524,0.000925708693357,-0.0274699677552,0.00172227784548,0.0,0.0274699677552,0.001001639,0.0,0.995565404772,0.0,-800.0,-40.0,-180.0,4.0,0.0,0.0,0.0,0.0
1354210904449196040,3299,1354210904449196040,9.79717439318e-17,-0.0275058498881,-0.0285764725023,-0.0274662545641,-0.00627627793724,0.0,0.0274662545641,0.000984846,0.0,1.14122847639,0.0,-800.0,-40.0,-180.0,4.0,0.0,0.0,0.0,0.0
1354210904459202542,3300,1354210904459202542,9.79717439318e-17,-0.0274969219089,0.00201307816333,-0.0275102968071,0.000770758940209,0.0,0.0275102968071,0.001005133,0.0,1.11561654095,0.0,-800.0,-40.0,-180.0,4.0,0.0,0.0,0.0,0.0
1354210904469178601,3301,1354210904469178601,9.79717439318e-17,-0.027467039049,0.0167732832145,-0.0274701413564,0.00309643024367,0.0,0.0274701413564,0.000981921,0.0,1.09470217699,0.0,-800.0,-40.0,-180.0,4.0,0.0,0.0,0.0,0.0
1354210904479209773,3302,1354210904479209773,9.79717439318e-17,-0.0274987032764,-0.0133215314572,-0.0274836375458,-0.00319284004204,0.0,0.0274836375458,0.001014069,0.0,1.0382966235,0.0,-800.0,-40.0,-180.0,4.0,0.0,0.0,0.0,0.0
1354210904489177230,3303,1354210904489177230,9.79717439318e-17,-0.0273600129442,0.014619700724,-0.0273771521437,0.0138855393586,0.0,0.0273771521437,0.000987622,23.126990232,1.03137526862,0.0,-800.0,-40.0,-180.0,4.0,0.0,0.0,0.0,0.0
1354210904499211336,3304,1354210904499211336,9.79717439318e-17,-0.0274252576717,-0.0148147325151,-0.0273980616698,-0.00656062778003,0.0,0.0273980616698,0.001012137,0.0,0.990479509814,0.0,-800.0,-40.0,-180.0,4.0,0.0,0.0,0.0,0.0
1354210904509217570,3305,1354210904509217570,9.79717439318e-17,-0.0274114267618,0.000271584197785,-0.0274058297845,0.0013776924269,0.0,0.0274058297845,0.001012169,0.0,0.99220513174,0.0,-800.0,-40.0,-180.0,4.0,0.0,0.0,0.0,0.0
1354210904519196864,3306,1354210904519196864,9.79717439318e-17,-0.0273231777937,0.0138540098659,-0.0273578495573,0.00884560000921,0.0,0.0273578495573,0.000985394,21.3148504543,1.02891517614,0.0,-800.0,-40.0,-180.0,4.0,0.0,0.0,0.0,0.0
1354210904529212649,3307,1354210904529212649,9.79717439318e-17,-0.0273413736678,-0.00114283764847,-0.0273167571468,-0.00180211758226,0.0,0.0273167571468,0.001000515,0.0,1.02366720201,0.0,-800.0,-40.0,-180.0,4.0,0.0,0.0,0.0,0.0
1354210904539204392,3308,1354210904539204392,9.79717439318e-17,-0.0273532725498,-0.016253363232,-0.0273483873175,-0.00134996426808,0.0,0.0273483873175,0.000983063,0.0,0.950488519123,0.0,-800.0,-40.0,-180.0,4.0,0.0,0.0,0.0,0.0
1354210904549184023,3309,1354210904549184023,9.79717439318e-17,-0.0273427373492,0.0142858652691,-0.0273652576597,0.00104053332006,0.0,0.0273652576597,0.000970558,0.0,1.28844916501,0.0,-800.0,-40.0,-180.0,4.0,0.0,0.0,0.0,0.0
1354210904559211686,3310,1354210904559211686,9.79717439318e-17,-0.0272565581707,0.0432535900854,-0.0272892358103,0.00878761594863,0.0,0.0272892358103,0.00101287,21.2556242615,0.976035538295,0.0,-800.0,-40.0,-180.0,4.0,0.0,0.0,0.0,0.0
1354210904569178408,3311,1354210904569178408,9.79717439318e-17,-0.0272294933572,-0.0494932829354,-0.0272039250069,0.00243509792769,0.0,0.0272039250069,0.000980937,0.0,0.945671536462,0.0,-800.0,-40.0,-180.0,4.0,0.0,0.0,0.0,0.0
1354210904579228728,3312,1354210904579228728,9.79717439318e-17,-0.0272072782943,-0.00379871468646,-0.0271963448606,0.00216459102188,0.0,0.0271963448606,0.001027394,0.0,0.955562431029,0.0,-800.0,-40.0,-180.0,4.0,0.0,0.0,0.0,0.0
1354210904589178970,3313,1354210904589178970,9.79717439318e-17,-0.027341634418,-0.0318419392132,-0.0272930193862,-0.0134970649804,0.0,0.0272930193863,0.000967253,0.0,0.96358322253,0.0,-800.0,-40.0,-180.0,4.0,0.0,0.0,0.0,0.0
1354210904599218280,3314,1354210904599218280,9.79717439318e-17,-0.0273367631776,0.0142099580978,-0.0273440249104,0.000400929029995,0.0,0.0273440249104,0.001013169,0.0,0.970203077331,0.0,-800.0,-40.0,-180.0,4.0,0.0,0.0,0.0,0.0
1354210904609210756,3315,1354210904609210756,9.79717439318e-17,-0.0273243763327,-0.0321862184024,-0.0272987172822,0.00140336149006,0.0,0.0272987172822,0.00101297,0.0,1.04931612134,0.0,-800.0,-40.0,-180.0,4.0,0.0,0.0,0.0,0.0
1354210904619203088,3316,1354210904619203088,9.79717439318e-17,-0.0272975216671,0.0133907655426,-0.0273091619576,0.0027406678242,0.0,0.0273091619576,0.00098987,0.0,1.07364846291,0.0,-800.0,-40.0,-180.0,4.0,0.0,0.0,0.0,0.0
1354210904629212194,3317,1354210904629212194,9.79717439318e-17,-0.0271901300832,0.0419662341224,-0.0272356480409,0.0106882160243,0.0,0.0272356480409,0.001014103,21.905386554,1.13269333388,0.0,-800.0,-40.0,-180.0,4.0,0.0,0.0,0.0,0.0
1354210904639210863,3318,1354210904639210863,9.79717439318e-17,-0.0272005801833,-0.0193432139609,-0.0271983272551,-0.00094694195954,0.0,0.0271983272551,0.001012427,0.0,1.21032044004,0.0,-800.0,-40.0,-180.0,4.0,0.0,0.0,0.0,0.0
1354210904649212790,3319,1354210904649212790,9.79717439318e-17,-0.0272908522192,-0.0175315545931,-0.0272640013392,-0.00896223610898,0.0,0.0272640013392,0.001012177,0.0,1.24583632158,0.0,-800.0,-40.0,-180.0,4.0,0.0,0.0,0.0,0.0
1354210904659217932,3320,1354210904659217932,9.79717439318e-17,-0.0273394827427,-0.00118417544412,-0.0273246494074,-0.00474831504821,0.0,0.0273246494074,0.001017664,0.0,1.1648897492,0.0,-800.0,-40.0,-180.0,4.0,0.0,0.0,0.0,0.0
1354210904669178590,3321,1354210904669178590,9.79717439318e-17,-0.0273266746024,-0.00145609322654,-0.0273145485649,0.00131051456163,0.0,0.0273145485649,0.000981879,0.0,1.13510014959,0.0,-800.0,-40.0,-180.0,4.0,0.0,0.0,0.0,0.0
1354210904679225119,3322,1354210904679225119,9.79717439318e-17,-0.0273657889155,-0.0160644112886,-0.0273761789849,-0.00373214855718,0.0,0.0273761789849,0.001026372,0.0,1.11051155538,0.0,-800.0,-40.0,-180.0,4.0,0.0,0.0,0.0,0.0
1354210904689196226,3323,1354210904689196226,9.79717439318e-17,-0.027307660759,-0.00189359129062,-0.0273004985466,0.00602183417228,0.0,0.0273004985466,0.000979773,20.2718266093,1.1296320175,0.0,-800.0,-40.0,-180.0,4.0,0.0,0.0,0.0,0.0
1354210904699219855,3324,1354210904699219855,9.79717439318e-17,-0.0272961713142,-0.0021051899183,-0.0272823072994,0.00105007110036,0.0,0.0272823072994,0.000999351,0.0,1.25032552464,0.0,-800.0,-40.0,-180.0,4.0,0.0,0.0,0.0,0.0
1354210904709211328,3325,1354210904709211328,9.79717439318e-17,-0.0272491635059,-0.0491704789812,-0.0272230426859,0.00473140615976,0.0,0.0272230426859,0.001011872,0.0,1.20221691543,0.0,-800.0,-40.0,-180.0,4.0,0.0,0.0,0.0,0.0
1354210904719196928,3326,1354210904719196928,9.79717439318e-17,-0.0272435599697,-0.00313514658964,-0.0272527434355,0.000333310746436,0.0,0.0272527434355,0.000982545,0.0,1.19972060408,0.0,-800.0,-40.0,-180.0,4.0,0.0,0.0,0.0,0.0
1354210904729212438,3327,1354210904729212438,9.79717439318e-17,-0.0273806235097,-0.0157231621404,-0.0273544679063,-0.0137402893933,0.0,0.0273544679063,0.001032633,0.0,1.12049945676,0.0,-800.0,-40.0,-180.0,4.0,0.0,0.0,0.0,0.0
1354210904739218061,3328,1354210904739218061,9.79717439318e-17,-0.0273295077201,-0.0167613008848,-0.0273326571033,0.00508553349202,0.0,0.0273326571033,0.001004657,0.0,1.09864863278,0.0,-800.0,-40.0,-180.0,4.0,0.0,0.0,0.0,0.0
1354210904749209610,3329,1354210904749209610,9.79717439318e-17,-0.0273730973746,-0.0158840199369,-0.0273466233336,-0.00430824522,0.0,0.0273466233336,0.001031237,0.0,1.01465416042,0.0,-800.0,-40.0,-180.0,4.0,0.0,0.0,0.0,0.0
1354210904759214204,3330,1354210904759214204,9.79717439318e-17,-0.0273349311843,0.0140929232064,-0.027360693854,0.00381642266388,0.0,0.027360693854,0.001001694,0.0,1.01030073238,0.0,-800.0,-40.0,-180.0,4.0,0.0,0.0,0.0,0.0
1354210904769178820,3331,1354210904769178820,9.79717439318e-17,-0.0272803468839,0.0283580180658,-0.0272938930762,0.00549901368711,0.0,0.0272938930762,0.000969753,20.0808704066,1.00843911961,0.0,-800.0,-40.0,-180.0,4.0,0.0,0.0,0.0,0.0
1354210904779217492,3332,1354210904779217492,9.79717439318e-17,-0.0273297863408,-0.00136556815324,-0.02731761733,-0.00507217411436,0.0,0.02731761733,0.000997718,0.0,1.00690508637,0.0,-800.0,-40.0,-180.0,4.0,0.0,0.0,0.0,0.0
1354210904789178634,3333,1354210904789178634,9.79717439318e-17,-0.0273245182836,0.013896768279,-0.027343262955,0.000612385877877,0.0,0.027343262955,0.000981558,0.0,1.11200385449,0.0,-800.0,-40.0,-180.0,4.0,0.0,0.0,0.0,0.0
1354210904799210161,3334,1354210904799210161,9.79717439318e-17,-0.0273665788689,-0.0160118134313,-0.0273558593308,-0.00414344396912,0.0,0.0273558593308,0.000997746,0.0,1.09164593885,0.0,-800.0,-40.0,-180.0,4.0,0.0,0.0,0.0,0.0
1354210904809193674,3335,1354210904809193674,9.79717439318e-17,-0.0274311553146,0.0160212807931,-0.0274168124624,-0.00635567939383,0.0,0.0274168124624,0.000980601,0.0,1.11122774412,0.0,-800.0,-40.0,-180.0,4.0,0.0,0.0,0.0,0.0
1354210904819195292,3336,1354210904819195292,9.79717439318e-17,-0.0275083813782,-0.0131711977105,-0.027497192006,-0.00769260174141,0.0,0.027497192006,0.000998506,0.0,1.09341415472,0.0,-800.0,-40.0,-180.0,4.0,0.0,0.0,0.0,0.0
1354210904829211167,3337,1354210904829211167,9.79717439318e-17,-0.027449849425,0.00103044889025,-0.0274520424778,0.00582932197484,0.0,0.0274520424778,0.00101588,20.287865495,1.1836813836,0.0,-800.0,-40.0,-180.0,4.0,0.0,0.0,0.0,0.0
1354210904839187296,3338,1354210904839187296,9.79717439318e-17,-0.0274151245603,0.0157125739919,-0.0274227256788,0.00348476657277,0.0,0.0274227256788,0.001019214,0.0,1.15047313719,0.0,-800.0,-40.0,-180.0,4.0,0.0,0.0,0.0,0.0
1354210904849167842,3339,1354210904849167842,9.79717439318e-17,-0.0274029153874,-0.0152784580283,-0.0273843585479,0.00110936656604,0.0,0.0273843585479,0.000990889,0.0,1.08728032231,0.0,-800.0,-40.0,-180.0,4.0,0.0,0.0,0.0,0.0
1354210904859210614,3340,1354210904859210614,9.79717439318e-17,-0.0273336119876,-0.0166306619418,-0.0273369962764,0.00660613764835,0.0,0.0273369962764,0.000998858,20.5015370509,0.958472984354,0.0,-800.0,-40.0,-180.0,4.0,0.0,0.0,0.0,0.0
1354210904869194881,3341,1354210904869194881,9.79717439318e-17,-0.0274234455851,0.000528974716637,-0.0274366700654,-0.00882140084094,0.0,0.0274366700654,0.001011553,0.0,1.00361806878,0.0,-800.0,-40.0,-180.0,4.0,0.0,0.0,0.0,0.0
1354210904879238847,3342,1354210904879238847,9.79717439318e-17,-0.0274356400559,0.0469054171086,-0.0274853184696,-0.0013105099764,0.0,0.0274853184696,0.0010149,0.0,1.03912338706,0.0,-800.0,-40.0,-180.0,4.0,0.0,0.0,0.0,0.0
1354210904889189879,3343,1354210904889189879,9.79717439318e-17,-0.0274563078409,0.0473232885311,-0.0274676887843,-0.00197440359408,0.0,0.0274676887843,0.000980332,0.0,0.992938455341,0.0,-800.0,-40.0,-180.0,4.0,0.0,0.0,0.0,0.0
1354210904899257955,3344,1354210904899257955,9.79717439318e-17,-0.0273857421839,0.0151391609045,-0.0274266831459,0.00694892390978,0.0,0.0274266831459,0.001031592,20.6745713057,1.03188936652,0.0,-800.0,-40.0,-180.0,4.0,0.0,0.0,0.0,0.0
1354210904909211077,3345,1354210904909211077,9.79717439318e-17,-0.0273789277645,-0.000374717226172,-0.0273752309253,0.000763598618647,0.0,0.0273752309253,0.000999092,0.0,1.13774470399,0.0,-800.0,-40.0,-180.0,4.0,0.0,0.0,0.0,0.0
1354210904919194923,3346,1354210904919194923,9.79717439318e-17,-0.0273515573506,-0.0163264519175,-0.0273089613018,0.00281835645168,0.0,0.0273089613018,0.000984701,0.0,1.18104939201,0.0,-800.0,-40.0,-180.0,4.0,0.0,0.0,0.0,0.0
1354210904929209767,3347,1354210904929209767,9.79717439318e-17,-0.0274277558767,0.000603212540815,-0.0274228022092,-0.00767509972789,0.0,0.0274228022092,0.001017052,0.0,1.22069325597,0.0,-800.0,-40.0,-180.0,4.0,0.0,0.0,0.0,0.0
1354210904939209956,3348,1354210904939209956,9.79717439318e-17,-0.0274208758662,0.0158479390252,-0.0274281545325,0.000624518532743,0.0,0.0274281545325,0.000998536,0.0,1.18068408223,0.0,-800.0,-40.0,-180.0,4.0,0.0,0.0,0.0,0.0
1354210904949206804,3349,1354210904949206804,9.79717439318e-17,-0.0274713260807,-0.0138830706348,-0.0274613336492,-0.00501276839861,0.0,0.0274613336492,0.001029587,0.0,1.22022461827,0.0,-800.0,-40.0,-180.0,4.0,0.0,0.0,0.0,0.0
1354210904959219259,3350,1354210904959219259,9.79717439318e-17,-0.0274713106277,0.00148733486738,-0.0274743584583,5.51867532517e-05,0.0,0.0274743584583,0.001001859,0.0,1.1802866479,0.0,-800.0,-40.0,-180.0,4.0,0.0,0.0,0.0,0.0
1354210904969175829,3351,1354210904969175829,9.79717439318e-17,-0.0274864327957,-0.0135604039023,-0.0274779388582,-0.00164723468842,0.0,0.0274779388582,0.000967459,0.0,1.11295438197,0.0,-800.0,-40.0,-180.0,4.0,0.0,0.0,0.0,0.0
1354210904979179870,3352,1354210904979179870,9.79717439318e-17,-0.0274677192755,-0.0139616924869,-0.0274891875115,0.00204517008181,0.0,0.0274891875115,0.000977547,0.0,1.05914993477,0.0,-800.0,-40.0,-180.0,4.0,0.0,0.0,0.0,0.0
1354210904992210945,3353,1354210904992210945,9.79717439318e-17,-0.0274574365165,-0.0141196847057,-0.027444442034,0.00451798258161,0.0,0.027444442034,0.001020328,0.0,0.92879263431,0.0,-800.0,-40.0,-180.0,4.0,0.0,0.0,0.0,0.0
1354210905002202177,3354,1354210905002202177,9.79717439318e-17,-0.0274039155244,0.0155394961186,-0.0274137369943,0.00534817540027,0.0,0.0274137369943,0.001012625,20.0940505844,0.974701166488,0.0,-800.0,-40.0,-180.0,4.0,0.0,0.0,0.0,0.0
1354210905012242212,3355,1354210905012242212,9.79717439318e-17,-0.0274042760274,0.00016458045067,-0.0273979581538,7.75503125532e-05,0.0,0.0273979581538,0.00099702,0.0,0.941695879709,0.0,-800.0,-40.0,-180.0,4.0,0.0,0.0,0.0,0.0
1354210905022219428,3356,1354210905022219428,9.79717439318e-17,-0.0274451833148,0.0470647732149,-0.0274613414234,-0.00370440176155,0.0,0.0274613414234,0.000959762,0.0,1.02470493203,0.0,-800.0,-40.0,-180.0,4.0,0.0,0.0,0.0,0.0
1354210905032215822,3357,1354210905032215822,9.79717439318e-17,-0.0275319551667,-0.0126749890834,-0.0275185785779,-0.00868707979084,0.0,0.0275185785779,0.000984388,0.0,1.05379604429,0.0,-800.0,-40.0,-180.0,4.0,0.0,0.0,0.0,0.0
1354210905042239656,3358,1354210905042239656,9.79717439318e-17,-0.0274827542116,0.00169426463964,-0.0274892931484,0.00487513289478,0.0,0.0274892931484,0.001000729,0.0,1.0413384848,0.0,-800.0,-40.0,-180.0,4.0,0.0,0.0,0.0,0.0
1354210905052222262,3359,1354210905052222262,9.79717439318e-17,-0.0273939813522,-0.0154342510136,-0.0273880999314,0.00860801141479,0.0,0.0273880999314,0.001015382,21.2467987817,1.03385671704,0.0,-800.0,-40.0,-180.0,4.0,0.0,0.0,0.0,0.0
1354210905062220964,3360,1354210905062220964,9.79717439318e-17,-0.0273745048059,0.0302994793019,-0.0274149851342,0.00193576242045,0.0,0.0274149851342,0.001020372,0.0,1.06684951699,0.0,-800.0,-40.0,-180.0,4.0,0.0,0.0,0.0,0.0
1354210905072213573,3361,1354210905072213573,9.79717439318e-17,-0.0273200738979,0.0138331033424,-0.027335908305,0.00531161327146,0.0,0.027335908305,0.000994827,20.0373080084,1.41024559169,0.0,-800.0,-40.0,-180.0,4.0,0.0,0.0,0.0,0.0
1354210905082216925,3362,1354210905082216925,9.79717439318e-17,-0.0273711274235,0.0148574641182,-0.0273862712255,-0.0050806663349,0.0,0.0273862712255,0.00104172,0.0,1.37202454415,0.0,-800.0,-40.0,-180.0,4.0,0.0,0.0,0.0,0.0
1354210905092216774,3363,1354210905092216774,9.79717439318e-17,-0.02735824068,0.0146090288103,-0.0273636003654,0.00109682399356,0.0,0.0273636003654,0.001029992,0.0,1.26684354015,0.0,-800.0,-40.0,-180.0,4.0,0.0,0.0,0.0,0.0
1354210905102220698,3364,1354210905102220698,9.79717439318e-17,-0.0274866982284,-0.0135398605371,-0.0274873018332,-0.012851543495,0.0,0.0274873018332,0.001004022,0.0,1.25351158917,0.0,-800.0,-40.0,-180.0,4.0,0.0,0.0,0.0,0.0
1354210905112209012,3365,1354210905112209012,9.79717439318e-17,-0.027412445648,0.0157082693858,-0.0274446934753,0.00738335169687,0.0,0.0274446934753,0.001009701,20.8402045588,1.24675610248,0.0,-800.0,-40.0,-180.0,4.0,0.0,0.0,0.0,0.0
1354210905122199964,3366,1354210905122199964,9.79717439318e-17,-0.0272714597001,0.0128348044501,-0.0273254224788,0.0142269044939,0.0,0.0273254224788,0.001029776,23.2198143519,1.12333639672,0.0,-800.0,-40.0,-180.0,4.0,0.0,0.0,0.0,0.0
1354210905132216742,3367,1354210905132216742,9.79717439318e-17,-0.0272236220195,0.0118730873071,-0.0272386768299,0.00474051500063,0.0,0.0272386768299,0.001016494,0.0,1.0976464902,0.0,-800.0,-40.0,-180.0,4.0,0.0,0.0,0.0,0.0
1354210905142221139,3368,1354210905142221139,9.79717439318e-17,-0.0272519858722,0.0124278805258,-0.0272615614348,-0.00278467211302,0.0,0.0272615614348,0.000999327,0.0,1.15716490104,0.0,-800.0,-40.0,-180.0,4.0,0.0,0.0,0.0,0.0
1354210905152215421,3369,1354210905152215421,9.79717439318e-17,-0.0273498827084,-0.016336207421,-0.0273133773234,-0.00983567633065,0.0,0.0273133773234,0.001001909,0.0,1.20415186038,0.0,-800.0,-40.0,-180.0,4.0,0.0,0.0,0.0,0.0
1354210905162213176,3370,1354210905162213176,9.79717439318e-17,-0.027398920071,-0.0307420069675,-0.027397173239,-0.00469019551967,0.0,0.027397173239,0.001041853,0.0,1.31207468315,0.0,-800.0,-40.0,-180.0,4.0,0.0,0.0,0.0,0.0
1354210905172194548,3371,1354210905172194548,9.79717439318e-17,-0.0274325158225,-0.0147133465839,-0.0274116392987,-0.0033300408039,0.0,0.0274116392987,0.001008278,0.0,1.43452660244,0.0,-800.0,-40.0,-180.0,4.0,0.0,0.0,0.0,0.0
1354210905182213211,3372,1354210905182213211,9.79717439318e-17,-0.0274680424449,-0.0139834736193,-0.0274610588903,-0.00361205051497,0.0,0.0274610588903,0.001002131,0.0,1.97817799436,0.0,-800.0,-40.0,-180.0,4.0,0.0,0.0,0.0,0.0
1354210905192221309,3373,1354210905192221309,9.79717439318e-17,-0.0274415327228,-0.014511320071,-0.0274369267351,0.00260493761509,0.0,0.0274369267351,0.001006725,0.0,1.97777312558,0.0,-800.0,-40.0,-180.0,4.0,0.0,0.0,0.0,0.0
1354210905202221286,3374,1354210905202221286,9.79717439318e-17,-0.0274327565972,0.0160951609276,-0.0274351467479,0.000723806027405,0.0,0.0274351467479,0.00103354,0.0,2.22260898388,0.0,-800.0,-40.0,-180.0,4.0,0.0,0.0,0.0,0.0
1354210905212226022,3375,1354210905212226022,9.79717439318e-17,-0.0275345438603,0.0181678459097,-0.02752810101,-0.0102809764939,0.0,0.02752810101,0.00100925,0.0,2.07829136706,0.0,-800.0,-40.0,-180.0,4.0,0.0,0.0,0.0,0.0
1354210905222199380,3376,1354210905222199380,9.79717439318e-17,-0.0274629249813,0.00134786207152,-0.0274809905168,0.00719541344524,0.0,0.0274809905168,0.000997654,20.7932771179,1.95566760521,0.0,-800.0,-40.0,-180.0,4.0,0.0,0.0,0.0,0.0
1354210905232215699,3377,1354210905232215699,9.79717439318e-17,-0.0275000567946,0.017467807558,-0.0275326126956,-0.00366190841835,0.0,0.0275326126956,0.001011347,0.0,1.93237729813,0.0,-800.0,-40.0,-180.0,4.0,0.0,0.0,0.0,0.0
1354210905242221472,3378,1354210905242221472,9.79717439318e-17,-0.0274791455152,-0.0137070843133,-0.0274819097589,0.00211572803032,0.0,0.0274819097589,0.001029581,0.0,1.79825832745,0.0,-800.0,-40.0,-180.0,4.0,0.0,0.0,0.0,0.0
1354210905252216635,3379,1354210905252216635,9.79717439318e-17,-0.0274733426705,0.0169295425727,-0.0274859365403,0.00053494081074,0.0,0.0274859365403,0.001004974,0.0,1.6887042768,0.0,-800.0,-40.0,-180.0,4.0,0.0,0.0,0.0,0.0
1354210905262216450,3380,1354210905262216450,9.79717439318e-17,-0.0274575595831,0.0012330232802,-0.0274602355569,0.00161141624693,0.0,0.0274602355569,0.00102985,0.0,1.5998073277,0.0,-800.0,-40.0,-180.0,4.0,0.0,0.0,0.0,0.0
1354210905272193303,3381,1354210905272193303,9.79717439318e-17,-0.0275531697863,0.0185404987068,-0.0275689406396,-0.00958246569043,0.0,0.0275689406396,0.000983049,0.0,1.67433230344,0.0,-800.0,-40.0,-180.0,4.0,0.0,0.0,0.0,0.0
1354210905282203573,3382,1354210905282203573,9.79717439318e-17,-0.0275634350842,0.00337024165747,-0.0275764542636,-0.00100619586554,0.0,0.0275764542636,0.001005619,0.0,1.88420152495,0.0,-800.0,-40.0,-180.0,4.0,0.0,0.0,0.0,0.0
1354210905292211336,3383,1354210905292211336,9.79717439318e-17,-0.0275306143448,0.00269921705744,-0.0275486828558,0.0033288341048,0.0,0.0275486828558,0.001013301,0.0,1.94007120419,0.0,-800.0,-40.0,-180.0,4.0,0.0,0.0,0.0,0.0
1354210905302229349,3384,1354210905302229349,9.79717439318e-17,-0.0275770040034,-0.0271114690491,-0.0275518203758,-0.00455432637844,0.0,0.0275518203758,0.001037927,0.0,1.8828219646,0.0,-800.0,-40.0,-180.0,4.0,0.0,0.0,0.0,0.0
1354210905312212766,3385,1354210905312212766,9.79717439318e-17,-0.027534154591,-0.0433373122404,-0.0275021224254,0.00419545528596,0.0,0.0275021224254,0.000999689,0.0,1.86843392528,0.0,-800.0,-40.0,-180.0,4.0,0.0,0.0,0.0,0.0
1354210905322217232,3386,1354210905322217232,9.79717439318e-17,-0.0274283439005,0.000644877907009,-0.0274359213051,0.0106081279982,0.0,0.0274359213051,0.001007604,21.989064552,1.78233392046,0.0,-800.0,-40.0,-180.0,4.0,0.0,0.0,0.0,0.0
1354210905332209759,3387,1354210905332209759,9.79717439318e-17,-0.027357989067,0.0299351034482,-0.0273562767992,0.00724342359159,0.0,0.0273562767992,0.001005211,20.7405260256,1.67649980343,0.0,-800.0,-40.0,-180.0,4.0,0.0,0.0,0.0,0.0
1354210905342199767,3388,1354210905342199767,9.79717439318e-17,-0.0273220249536,-0.0169212373529,-0.0273308382583,0.00366283614893,0.0,0.0273308382583,0.001012518,0.0,1.58745738681,0.0,-800.0,-40.0,-180.0,4.0,0.0,0.0,0.0,0.0
1354210905352227252,3389,1354210905352227252,9.79717439318e-17,-0.0273212069499,-0.0169452434086,-0.0273298152593,0.000146489337228,0.0,0.0273298152593,0.001028471,0.0,1.78826122733,0.0,-800.0,-40.0,-180.0,4.0,0.0,0.0,0.0,0.0
1354210905362226505,3390,1354210905362226505,9.79717439318e-17,-0.0273392502954,-0.0319646901036,-0.0273132211819,-0.00166672891504,0.0,0.0273132211819,0.001049318,0.0,1.94768338481,0.0,-800.0,-40.0,-180.0,4.0,0.0,0.0,0.0,0.0
1354210905372208887,3391,1354210905372208887,9.79717439318e-17,-0.0273796245484,-0.0157515201729,-0.0273569885016,-0.00412375646832,0.0,0.0273569885016,0.001009164,0.0,1.85147648437,0.0,-800.0,-40.0,-180.0,4.0,0.0,0.0,0.0,0.0
1354210905382205122,3392,1354210905382205122,9.79717439318e-17,-0.0274517107941,0.0010817907446,-0.0274386381275,-0.0072830633576,0.0,0.0274386381275,0.00103474,0.0,1.91321611609,0.0,-800.0,-40.0,-180.0,4.0,0.0,0.0,0.0,0.0
1354210905392214282,3393,1354210905392214282,9.79717439318e-17,-0.0274389862739,-0.0145491915318,-0.0274435296623,0.00123541969779,0.0,0.0274435296623,0.000997311,0.0,2.09921151172,0.0,-800.0,-40.0,-180.0,4.0,0.0,0.0,0.0,0.0
1354210905402192621,3394,1354210905402192621,9.79717439318e-17,-0.0274536689974,0.0165150138537,-0.02746580823,-0.00152385420365,0.0,0.02746580823,0.001019878,0.0,1.97266305454,0.0,-800.0,-40.0,-180.0,4.0,0.0,0.0,0.0,0.0
1354210905412231102,3395,1354210905412231102,9.79717439318e-17,-0.0275525864709,-0.0122505643309,-0.0275332700713,-0.00971349691777,0.0,0.0275332700713,0.001023196,0.0,2.07219187483,0.0,-800.0,-40.0,-180.0,4.0,0.0,0.0,0.0,0.0
1354210905422227774,3396,1354210905422227774,9.79717439318e-17,-0.0275389253219,0.00285494915576,-0.0275354812186,0.00138589896609,0.0,0.0275354812187,0.001042407,0.0,1.91396894656,0.0,-800.0,-40.0,-180.0,4.0,0.0,0.0,0.0,0.0
1354210905432190912,3397,1354210905432190912,9.79717439318e-17,-0.0275816125185,-0.0116634002334,-0.0275764544515,-0.00418507718991,0.0,0.0275764544515,0.000975991,0.0,1.74458469054,0.0,-800.0,-40.0,-180.0,4.0,0.0,0.0,0.0,0.0
1354210905442214946,3398,1354210905442214946,9.79717439318e-17,-0.0277002838317,-0.0246535685084,-0.0276770205818,-0.0117487426306,0.0,0.0276770205818,0.001046091,0.0,1.60932097767,0.0,-800.0,-40.0,-180.0,4.0,0.0,0.0,0.0,0.0
1354210905452215226,3399,1354210905452215226,9.79717439318e-17,-0.0275916580371,0.0192816012958,-0.0276093691749,0.0108581968901,0.0,0.0276093691749,0.001011864,22.1757412545,1.50201401278,0.0,-800.0,-40.0,-180.0,4.0,0.0,0.0,0.0,0.0
1354210905462214657,3400,1354210905462214657,9.79717439318e-17,-0.0275763943311,-0.0271493093519,-0.0275362136943,0.00163359652014,0.0,0.0275362136943,0.00104384,0.0,1.48251770112,0.0,-800.0,-40.0,-180.0,4.0,0.0,0.0,0.0,0.0
1354210905472211458,3401,1354210905472211458,9.79717439318e-17,-0.0275408211143,0.0182538375756,-0.0275719342075,0.00353905181484,0.0,0.0275719342075,0.001014675,0.0,1.47359435504,0.0,-800.0,-40.0,-180.0,4.0,0.0,0.0,0.0,0.0
1354210905482211458,3402,1354210905482211458,9.79717439318e-17,-0.0274922558708,0.0172727332807,-0.0275436283617,0.0048099309693,0.0,0.0275436283617,0.001029092,0.0,1.72013148035,0.0,-800.0,-40.0,-180.0,4.0,0.0,0.0,0.0,0.0
1354210905492218518,3403,1354210905492218518,9.79717439318e-17,-0.0274103179027,0.000253345233344,-0.0274078609851,0.00811778041272,0.0,0.0274078609851,0.001013019,21.0824387375,1.62315806548,0.0,-800.0,-40.0,-180.0,4.0,0.0,0.0,0.0,0.0
1354210905502223249,3404,1354210905502223249,9.79717439318e-17,-0.0274210414798,0.0158362961155,-0.0274224267943,-0.00103366089069,0.0,0.0274224267943,0.001033024,0.0,1.54726213271,0.0,-800.0,-40.0,-180.0,4.0,0.0,0.0,0.0,0.0
1354210905512194173,3405,1354210905512194173,9.79717439318e-17,-0.0274127794612,0.0156895751028,-0.02743268815,0.000721626296883,0.0,0.02743268815,0.001023949,0.0,1.37498980251,0.0,-800.0,-40.0,-180.0,4.0,0.0,0.0,0.0,0.0
1354210905522214228,3406,1354210905522214228,9.79717439318e-17,-0.0273399290466,-0.00116369935748,-0.0273562248558,0.00726985984435,0.0,0.0273562248558,0.001029716,20.7499612963,1.30687962339,0.0,-800.0,-40.0,-180.0,4.0,0.0,0.0,0.0,0.0
1354210905532187864,3407,1354210905532187864,9.79717439318e-17,-0.0274034184996,0.000122283035884,-0.0274006440153,-0.00636938414543,0.0,0.0274006440153,0.00097552,0.0,1.14006080517,0.0,-800.0,-40.0,-180.0,4.0,0.0,0.0,0.0,0.0
1354210905542184208,3408,1354210905542184208,9.79717439318e-17,-0.0274020435643,0.0154718552973,-0.027408660662,5.773811434e-05,0.0,0.027408660662,0.000997469,0.0,1.19112382757,0.0,-800.0,-40.0,-180.0,4.0,0.0,0.0,0.0,0.0
1354210905552237741,3409,1354210905552237741,9.79717439318e-17,-0.0272759014803,0.0129197121214,-0.0273055774498,0.0124811798124,0.0,0.0273055774498,0.001030456,22.5853789594,1.50989362039,0.0,-800.0,-40.0,-180.0,4.0,0.0,0.0,0.0,0.0
1354210905562227187,3410,1354210905562227187,9.79717439318e-17,-0.0273097925767,-0.00174650759581,-0.0273031726025,-0.00342990868207,0.0,0.0273031726025,0.001054343,0.0,1.49355398451,0.0,-800.0,-40.0,-180.0,4.0,0.0,0.0,0.0,0.0
1354210905572196368,3411,1354210905572196368,9.79717439318e-17,-0.0273564721129,-0.000811949527282,-0.0273391898169,-0.0046500730169,0.0,0.0273391898169,0.000997708,0.0,1.68141862572,0.0,-800.0,-40.0,-180.0,4.0,0.0,0.0,0.0,0.0
1354210905582190838,3412,1354210905582190838,9.79717439318e-17,-0.0273908405022,-0.000129166854792,-0.027378178912,-0.00341125726213,0.0,0.027378178912,0.001007295,0.0,1.66910665145,0.0,-800.0,-40.0,-180.0,4.0,0.0,0.0,0.0,0.0
1354210905592239583,3413,1354210905592239583,9.79717439318e-17,-0.0274485222067,0.00102346138792,-0.0274351484957,-0.00571749307764,0.0,0.0274351484957,0.001020749,0.0,1.62467485687,0.0,-800.0,-40.0,-180.0,4.0,0.0,0.0,0.0,0.0
1354210905602208420,3414,1354210905602208420,9.79717439318e-17,-0.0274564669904,-0.029543279543,-0.0274115922938,-0.000854638876865,0.0,0.0274115922938,0.001022571,0.0,1.54926823337,0.0,-800.0,-40.0,-180.0,4.0,0.0,0.0,0.0,0.0
1354210905612227037,3415,1354210905612227037,9.79717439318e-17,-0.027444308871,0.0163381557571,-0.0274527854869,0.00125365501014,0.0,0.0274527854869,0.001011488,0.0,1.4179996952,0.0,-800.0,-40.0,-180.0,4.0,0.0,0.0,0.0,0.0
1354210905622214819,3416,1354210905622214819,9.79717439318e-17,-0.0274208277551,-0.0148899131232,-0.0274242993102,0.00239097024101,0.0,0.0274242993102,0.00102635,0.0,1.38191451984,0.0,-800.0,-40.0,-180.0,4.0,0.0,0.0,0.0,0.0
1354210905632184523,3417,1354210905632184523,9.79717439318e-17,-0.0273887305894,-0.015523946342,-0.0273855075255,0.00316063451326,0.0,0.0273855075255,0.000969917,0.0,1.38528399292,0.0,-800.0,-40.0,-180.0,4.0,0.0,0.0,0.0,0.0
1354210905642214468,3418,1354210905642214468,9.79717439318e-17,-0.0274603702925,-0.0140769254799,-0.0274407190024,-0.00709872268808,0.0,0.0274407190024,0.001043322,0.0,1.35003527176,0.0,-800.0,-40.0,-180.0,4.0,0.0,0.0,0.0,0.0
