%time,field.header.seq,field.header.stamp,field.set_point,field.process_value,field.process_value_dot,field.process_value_filtered,field.process_value_dot_filtered,field.commanded_velocity,field.error,field.time_step,field.command,field.measured_effort,field.friction_compensation,field.position_p,field.position_i,field.position_d,field.position_i_clamp,field.velocity_p,field.velocity_i,field.velocity_d,field.velocity_i_clamp
1354211860465178385,5688,1354211860465178385,9.79717439318e-17,0.00176752613223,0.0104020606093,0.00176823895979,-0.00367833613871,0.0,-0.00176823895979,0.000976883,0.0,-5.01358278164,0.0,-3200.0,-200.0,-800.0,32.0,0.0,0.0,0.0,0.0
1354211860475209184,5689,1354211860475209184,9.79717439318e-17,0.00175667636743,0.0106154864892,0.00172498209565,-0.00103055976843,0.0,-0.00172498209565,0.001013362,0.0,-5.15630404862,0.0,-3200.0,-200.0,-800.0,32.0,0.0,0.0,0.0,0.0
1354211860485223129,5690,1354211860485223129,9.79717439318e-17,0.00178432686926,-0.00531989160181,0.00178582427926,0.00262141581355,0.0,-0.00178582427926,0.001012077,0.0,-4.9262038627,0.0,-3200.0,-200.0,-800.0,32.0,0.0,0.0,0.0,0.0
1354211860495223577,5691,1354211860495223577,9.79717439318e-17,0.00176296507045,-0.0202697295546,0.0017670498007,-0.00203158914005,0.0,-0.0017670498007,0.001019987,0.0,-5.08802027828,0.0,-3200.0,-200.0,-800.0,32.0,0.0,0.0,0.0,0.0
1354211860505230773,5692,1354211860505230773,9.79717439318e-17,0.00169094286214,-0.00343463426811,0.001704080173,-0.00723044385661,0.0,-0.001704080173,0.001007166,0.0,-5.17640846626,0.0,-3200.0,-200.0,-800.0,32.0,0.0,0.0,0.0,0.0
1354211860515230966,5693,1354211860515230966,9.79717439318e-17,0.00168839084132,-0.0187486376358,0.00170178440216,-0.000310907252913,0.0,-0.00170178440216,0.001007335,0.0,-4.99300727348,0.0,-3200.0,-200.0,-800.0,32.0,0.0,0.0,0.0,0.0
1354211860525222891,5694,1354211860525222891,9.79717439318e-17,0.00174280274067,0.0262627450656,0.0017170591805,0.00547313356206,0.0,-0.0017170591805,0.001005903,0.0,-4.83808347809,0.0,-3200.0,-200.0,-800.0,32.0,0.0,0.0,0.0,0.0
1354211860535239839,5695,1354211860535239839,9.79717439318e-17,0.00177047781858,-0.0358039813402,0.0017818034871,0.00287653172177,0.0,-0.0017818034871,0.001017559,0.0,-4.72340941408,0.0,-3200.0,-200.0,-800.0,32.0,0.0,0.0,0.0,0.0
1354211860545239380,5696,1354211860545239380,9.79717439318e-17,0.00179045206401,-0.0208285268663,0.00180750974698,0.00189996614382,0.0,-0.00180750974698,0.001000159,0.0,-4.81235641582,0.0,-3200.0,-200.0,-800.0,32.0,0.0,0.0,0.0,0.0
1354211860555224599,5697,1354211860555224599,9.79717439318e-17,0.00182945813888,0.00912729445137,0.00180473238609,0.00389546694823,0.0,-0.00180473238609,0.000997461,0.0,-4.74058654842,0.0,-3200.0,-200.0,-800.0,32.0,0.0,0.0,0.0,0.0
1354211860565233544,5698,1354211860565233544,9.79717439318e-17,0.00181343289288,-0.00590508270382,0.00183495891165,-0.00168287580092,0.0,-0.00183495891165,0.001011868,0.0,-4.6332606073,0.0,-3200.0,-200.0,-800.0,32.0,0.0,0.0,0.0,0.0
1354211860575205579,5699,1354211860575205579,9.79717439318e-17,0.00175896493263,-0.00479525779065,0.00178719670754,-0.00555814423763,0.0,-0.00178719670754,0.000987935,0.0,-4.70086032717,0.0,-3200.0,-200.0,-800.0,32.0,0.0,0.0,0.0,0.0
1354211860585207987,5700,1354211860585207987,9.79717439318e-17,0.00170981151006,-0.0191954310894,0.00173333664731,-0.00487692807921,0.0,-0.00173333664731,0.00100334,0.0,-4.86216647711,0.0,-3200.0,-200.0,-800.0,32.0,0.0,0.0,0.0,0.0
1354211860595230840,5701,1354211860595230840,9.79717439318e-17,0.00168983535232,-0.0187912446158,0.00169462645042,-0.00189300857798,0.0,-0.00169462645042,0.001030377,0.0,-4.85159759858,0.0,-3200.0,-200.0,-800.0,32.0,0.0,0.0,0.0,0.0
1354211860605217230,5702,1354211860605217230,9.79717439318e-17,0.00172289283633,-0.00408318283088,0.00173436102337,0.0032990740076,0.0,-0.00173436102337,0.000996369,0.0,-4.98230848511,0.0,-3200.0,-200.0,-800.0,32.0,0.0,0.0,0.0,0.0
1354211860615206112,5703,1354211860615206112,9.79717439318e-17,0.00173803636412,-0.0197646048669,0.00174727637564,0.0015832322661,0.0,-0.00174727637564,0.000989894,0.0,-5.05892629609,0.0,-3200.0,-200.0,-800.0,32.0,0.0,0.0,0.0,0.0
1354211860625227109,5704,1354211860625227109,9.79717439318e-17,0.00170937755088,-0.00381625929292,0.00172975526723,-0.00284919018933,0.0,-0.00172975526723,0.000991554,0.0,-5.11925141691,0.0,-3200.0,-200.0,-800.0,32.0,0.0,0.0,0.0,0.0
1354211860635249845,5705,1354211860635249845,9.79717439318e-17,0.00178468054839,-0.00533499766782,0.00177374343415,0.00753270443047,0.0,-0.00177374343415,0.001005133,0.0,-5.02074404557,0.0,-3200.0,-200.0,-800.0,32.0,0.0,0.0,0.0,0.0
1354211860645225378,5706,1354211860645225378,9.79717439318e-17,0.00176434589139,-0.0203019038561,0.00177739643005,-0.00209934435167,0.0,-0.00177739643005,0.000986572,0.0,-4.6354002761,0.0,-3200.0,-200.0,-800.0,32.0,0.0,0.0,0.0,0.0
1354211860655177701,5707,1354211860655177701,9.79717439318e-17,0.00169206018829,-0.00347593884758,0.00170528943885,-0.0072137603506,0.0,-0.00170528943885,0.00098484,0.0,-4.59413498274,0.0,-3200.0,-200.0,-800.0,32.0,0.0,0.0,0.0,0.0
1354211860665216473,5708,1354211860665216473,9.79717439318e-17,0.00167621042364,0.0122153669614,0.0016699104226,-0.00152538113746,0.0,-0.0016699104226,0.001003771,0.0,-4.74442401813,0.0,-3200.0,-200.0,-800.0,32.0,0.0,0.0,0.0,0.0
1354211860675198823,5709,1354211860675198823,9.79717439318e-17,0.00162609603678,0.0132438766874,0.00161126973318,-0.00512453138995,0.0,-0.00161126973318,0.001013099,0.0,-4.97166814562,0.0,-3200.0,-200.0,-800.0,32.0,0.0,0.0,0.0,0.0
1354211860685200970,5710,1354211860685200970,9.79717439318e-17,0.00155907684307,0.0299695877124,0.00153172635596,-0.00673708059178,0.0,-0.00153172635596,0.001016765,0.0,-5.08871184133,0.0,-3200.0,-200.0,-800.0,32.0,0.0,0.0,0.0,0.0
1354211860695237400,5711,1354211860695237400,9.79717439318e-17,0.00168082066351,0.0121454658081,0.00164052153529,0.0121760128877,0.0,-0.00164052153529,0.001011242,0.0,-5.12054769899,0.0,-3200.0,-200.0,-800.0,32.0,0.0,0.0,0.0,0.0
1354211860705196731,5712,1354211860705196731,9.79717439318e-17,0.00173505696686,0.0110545403551,0.00171886800529,0.00540772441784,0.0,-0.00171886800529,0.000970102,0.0,-4.93725188951,0.0,-3200.0,-200.0,-800.0,32.0,0.0,0.0,0.0,0.0
1354211860715220923,5713,1354211860715220923,9.79717439318e-17,0.00174884687872,-0.0199572486834,0.00176149616276,0.00124796242191,0.0,-0.00176149616276,0.00099692,0.0,-4.5888598356,0.0,-3200.0,-200.0,-800.0,32.0,0.0,0.0,0.0,0.0
1354211860725207700,5714,1354211860725207700,9.79717439318e-17,0.00181844972168,0.00939388480567,0.00179334205688,0.00708469460668,0.0,-0.00179334205688,0.000983733,0.0,-4.73857439455,0.0,-3200.0,-200.0,-800.0,32.0,0.0,0.0,0.0,0.0
1354211860735257618,5715,1354211860735257618,9.79717439318e-17,0.0018102894734,0.00959009820186,0.00180599678976,-0.0010013321497,0.0,-0.00180599678976,0.001025639,0.0,-4.75739786087,0.0,-3200.0,-200.0,-800.0,32.0,0.0,0.0,0.0,0.0
1354211860745210980,5716,1354211860745210980,9.79717439318e-17,0.00186186867966,0.0239289535918,0.00180444881214,0.00517874303682,0.0,-0.00180444881214,0.000960864,0.0,-4.83680943174,0.0,-3200.0,-200.0,-800.0,32.0,0.0,0.0,0.0,0.0
1354211860755180990,5717,1354211860755180990,9.79717439318e-17,0.00185759981226,0.0393857093989,0.00183369132873,-0.000365937032516,0.0,-0.00183369132873,0.000981904,0.0,-4.97603099185,0.0,-3200.0,-200.0,-800.0,32.0,0.0,0.0,0.0,0.0
1354211860765210343,5718,1354211860765210343,9.79717439318e-17,0.00186452509226,-0.00690692220969,0.00186040547194,0.000863233038697,0.0,-0.00186040547194,0.001049007,0.0,-4.85476707608,0.0,-3200.0,-200.0,-800.0,32.0,0.0,0.0,0.0,0.0
1354211860775197131,5719,1354211860775197131,9.79717439318e-17,0.00181316538489,0.00949516735729,0.00181583248618,-0.00495102915636,0.0,-0.00181583248618,0.000983104,0.0,-4.55728155908,0.0,-3200.0,-200.0,-800.0,32.0,0.0,0.0,0.0,0.0
1354211860785214693,5720,1354211860785214693,9.79717439318e-17,0.00180548748099,0.00966051136681,0.00179816223613,-0.000825862484433,0.0,-0.00179816223613,0.000969418,0.0,-4.10921255842,0.0,-3200.0,-200.0,-800.0,32.0,0.0,0.0,0.0,0.0
1354211860795238499,5721,1354211860795238499,9.79717439318e-17,0.00180997755386,-0.00582797311301,0.00180632388636,0.000522575059105,0.0,-0.00180632388636,0.001012974,0.0,-4.05961916227,0.0,-3200.0,-200.0,-800.0,32.0,0.0,0.0,0.0,0.0
1354211860805161802,5722,1354211860805161802,9.79717439318e-17,0.00175668407295,0.0259919134076,0.00176900808734,-0.00533872840538,0.0,-0.00176900808734,0.000997429,0.0,-3.79745510796,0.0,-3200.0,-200.0,-800.0,32.0,0.0,0.0,0.0,0.0
1354211860815168697,5723,1354211860815168697,9.79717439318e-17,0.00172684428092,-0.0195368959934,0.00174483736177,-0.00288473295364,0.0,-0.00174483736177,0.00100793,0.0,-4.16282631676,0.0,-3200.0,-200.0,-800.0,32.0,0.0,0.0,0.0,0.0
1354211860825164448,5724,1354211860825164448,9.79717439318e-17,0.00174556998019,0.0108339425502,0.00173915181106,0.00192034592307,0.0,-0.00173915181106,0.00097472,0.0,-4.46034444036,0.0,-3200.0,-200.0,-800.0,32.0,0.0,0.0,0.0,0.0
1354211860835185399,5725,1354211860835185399,9.79717439318e-17,0.00167483064179,-0.018474591468,0.00170293518875,-0.00716941384817,0.0,-0.00170293518875,0.001000229,0.0,-3.92630942101,0.0,-3200.0,-200.0,-800.0,32.0,0.0,0.0,0.0,0.0
1354211860845157981,5726,1354211860845157981,9.79717439318e-17,0.00162426101301,0.0132987086084,0.00161248890266,-0.00515406354994,0.0,-0.00161248890266,0.001007887,0.0,-4.06706087604,0.0,-3200.0,-200.0,-800.0,32.0,0.0,0.0,0.0,0.0
1354211860855207409,5727,1354211860855207409,9.79717439318e-17,0.00173613436674,0.0264383119534,0.00169495130833,0.01105911136,0.0,-0.00169495130833,0.000979591,0.0,-4.41852173515,0.0,-3200.0,-200.0,-800.0,32.0,0.0,0.0,0.0,0.0
1354211860865245023,5728,1354211860865245023,9.79717439318e-17,0.00175686012376,0.0106410015914,0.00172547898657,0.00206714484793,0.0,-0.00172547898657,0.001012398,0.0,-4.12590593104,0.0,-3200.0,-200.0,-800.0,32.0,0.0,0.0,0.0,0.0
1354211860875216740,5729,1354211860875216740,9.79717439318e-17,0.00178060083553,-0.035965088565,0.0017916649279,0.00241361636774,0.0,-0.0017916649279,0.00099414,0.0,-4.42841028992,0.0,-3200.0,-200.0,-800.0,32.0,0.0,0.0,0.0,0.0
1354211860885231721,5730,1354211860885231721,9.79717439318e-17,0.00174650332243,-0.00453019672657,0.0017531037563,-0.00336690142215,0.0,-0.0017531037563,0.001006506,0.0,-4.13103158561,0.0,-3200.0,-200.0,-800.0,32.0,0.0,0.0,0.0,0.0
1354211860895245069,5731,1354211860895245069,9.79717439318e-17,0.00172476167753,0.0112923695538,0.00170788740465,-0.0022316114345,0.0,-0.00170788740465,0.001014056,0.0,-3.98668321938,0.0,-3200.0,-200.0,-800.0,32.0,0.0,0.0,0.0,0.0
1354211860905157630,5732,1354211860905157630,9.79717439318e-17,0.00171470127073,-0.0192502538318,0.00172285088606,-0.000957323401575,0.0,-0.00172285088606,0.000997835,0.0,-3.37638939599,0.0,-3200.0,-200.0,-800.0,32.0,0.0,0.0,0.0,0.0
1354211860917154118,5733,1354211860917154118,9.79717439318e-17,0.00168421292719,-0.00355358662558,0.00167950593097,0.00117303201662,0.0,-0.00167950593097,0.001003667,0.0,-2.66814331129,0.0,-3200.0,-200.0,-800.0,32.0,0.0,0.0,0.0,0.0
1354211860927188698,5734,1354211860927188698,9.79717439318e-17,0.00170291936915,-0.0192405640363,0.00168815178764,0.00141167785549,0.0,-0.00168815178764,0.00098644,0.0,-2.71083530871,0.0,-3200.0,-200.0,-800.0,32.0,0.0,0.0,0.0,0.0
1354211860937224029,5735,1354211860937224029,9.79717439318e-17,0.00172806970752,-0.0042802845446,0.00171732735494,0.00201759286735,0.0,-0.00171732735494,0.000980445,0.0,-3.01457129807,0.0,-3200.0,-200.0,-800.0,32.0,0.0,0.0,0.0,0.0
1354211860947238635,5736,1354211860947238635,9.79717439318e-17,0.00172853152956,-0.00427116398886,0.00173713142128,1.47483881971e-05,0.0,-0.00173713142128,0.001033732,0.0,-3.24448386605,0.0,-3200.0,-200.0,-800.0,32.0,0.0,0.0,0.0,0.0
1354211860957251080,5737,1354211860957251080,9.79717439318e-17,0.00176013795419,0.025838667185,0.00173478504771,0.00318017510874,0.0,-0.00173478504771,0.001013058,0.0,-3.38635179989,0.0,-3200.0,-200.0,-800.0,32.0,0.0,0.0,0.0,0.0
1354211860967208450,5738,1354211860967208450,9.79717439318e-17,0.00176055899151,-0.0202595846775,0.00175780069185,-0.000179975324113,0.0,-0.00175780069185,0.000999077,0.0,-2.77261495501,0.0,-3200.0,-200.0,-800.0,32.0,0.0,0.0,0.0,0.0
1354211860977210747,5739,1354211860977210747,9.79717439318e-17,0.00181084871077,-0.0212826581451,0.00181111584179,0.00509746472436,0.0,-0.00181111584179,0.001019194,0.0,-2.98207492198,0.0,-3200.0,-200.0,-800.0,32.0,0.0,0.0,0.0,0.0
1354211860987209251,5740,1354211860987209251,9.79717439318e-17,0.00188206910956,-0.0227093768428,0.00188132480315,0.00702989326052,0.0,-0.00188132480315,0.001000232,0.0,-2.95052355972,0.0,-3200.0,-200.0,-800.0,32.0,0.0,0.0,0.0,0.0
1354211860997210459,5741,1354211860997210459,9.79717439318e-17,0.0018681535716,-0.0224115539122,0.00190440142774,-0.00149421147412,0.0,-0.00190440142774,0.001000995,0.0,-3.13744708617,0.0,-3200.0,-200.0,-800.0,32.0,0.0,0.0,0.0,0.0
1354211861007217257,5742,1354211861007217257,9.79717439318e-17,0.00181647476106,-0.0213523096856,0.00183839897994,-0.00522264309081,0.0,-0.00183839897994,0.001013454,0.0,-3.03378298958,0.0,-3200.0,-200.0,-800.0,32.0,0.0,0.0,0.0,0.0
1354211861017196487,5743,1354211861017196487,9.79717439318e-17,0.00170942175783,-0.0191754433909,0.00174239850217,-0.0107921250626,0.0,-0.00174239850217,0.000999536,0.0,-3.30385977074,0.0,-3200.0,-200.0,-800.0,32.0,0.0,0.0,0.0,0.0
1354211861027195598,5744,1354211861027195598,9.79717439318e-17,0.00180061817437,-0.020984026153,0.00179994887248,0.00891882150882,0.0,-0.00179994887248,0.000999321,0.0,-3.24402595713,0.0,-3200.0,-200.0,-800.0,32.0,0.0,0.0,0.0,0.0
1354211861037195430,5745,1354211861037195430,9.79717439318e-17,0.00174472860972,-0.0352299309825,0.00179169077688,-0.00553258273441,0.0,-0.00179169077688,0.000999749,0.0,-3.62876424702,0.0,-3200.0,-200.0,-800.0,32.0,0.0,0.0,0.0,0.0
1354211861047175370,5746,1354211861047175370,9.79717439318e-17,0.00177519063755,0.0103221853276,0.00176870374827,0.00278439077124,0.0,-0.00176870374827,0.00099125,0.0,-3.94507631393,0.0,-3200.0,-200.0,-800.0,32.0,0.0,0.0,0.0,0.0
1354211861057215174,5747,1354211861057215174,9.79717439318e-17,0.00180850636233,-0.0211165486834,0.00182045056917,0.00340654495512,0.0,-0.00182045056917,0.001002139,0.0,-4.2811093554,0.0,-3200.0,-200.0,-800.0,32.0,0.0,0.0,0.0,0.0
1354211861067184710,5748,1354211861067184710,9.79717439318e-17,0.00177658433554,-0.00509262344612,0.00177449943745,-0.00331950520883,0.0,-0.00177449943745,0.000982117,0.0,-4.52424707062,0.0,-3200.0,-200.0,-800.0,32.0,0.0,0.0,0.0,0.0
1354211861077210401,5749,1354211861077210401,9.79717439318e-17,0.00173051692919,-0.00417693190291,0.00173283998987,-0.00456657098646,0.0,-0.00173283998987,0.001017009,0.0,-4.37137924735,0.0,-3200.0,-200.0,-800.0,32.0,0.0,0.0,0.0,0.0
1354211861087193163,5750,1354211861087193163,9.79717439318e-17,0.0018544770412,0.024050506677,0.00184324095955,0.0124789609881,0.0,-0.00184324095955,0.000983608,0.0,-4.30601497619,0.0,-3200.0,-200.0,-800.0,32.0,0.0,0.0,0.0,0.0
1354211861097235454,5751,1354211861097235454,9.79717439318e-17,0.00187820118183,-0.037945401799,0.00189086684483,0.00249050590978,0.0,-0.00189086684483,0.001018478,0.0,-4.50480452311,0.0,-3200.0,-200.0,-800.0,32.0,0.0,0.0,0.0,0.0
1354211861107230974,5752,1354211861107230974,9.79717439318e-17,0.0019076031323,-0.0231913096799,0.00191790296195,0.0030301097006,0.0,-0.00191790296194,0.001020148,0.0,-4.43334134495,0.0,-3200.0,-200.0,-800.0,32.0,0.0,0.0,0.0,0.0
1354211861117210702,5753,1354211861117210702,9.79717439318e-17,0.00186686669766,-0.0377380390268,0.00188133668095,-0.00417088939148,0.0,-0.00188133668095,0.000999098,0.0,-4.61570791012,0.0,-3200.0,-200.0,-800.0,32.0,0.0,0.0,0.0,0.0
1354211861127231165,5754,1354211861127231165,9.79717439318e-17,0.00183100914154,-0.0370213622547,0.00186362229437,-0.00353777930686,0.0,-0.00186362229437,0.00101995,0.0,-4.59276110202,0.0,-3200.0,-200.0,-800.0,32.0,0.0,0.0,0.0,0.0
1354211861137190952,5755,1354211861137190952,9.79717439318e-17,0.00183151981014,-0.0216543512203,0.00184409285088,-0.000114993878221,0.0,-0.00184409285088,0.000981581,0.0,-4.77559858809,0.0,-3200.0,-200.0,-800.0,32.0,0.0,0.0,0.0,0.0
1354211861147193239,5756,1354211861147193239,9.79717439318e-17,0.00180020299938,-0.00564743611124,0.00181170449038,-0.00314566827638,0.0,-0.00181170449038,0.000982473,0.0,-4.9598978289,0.0,-3200.0,-200.0,-800.0,32.0,0.0,0.0,0.0,0.0
1354211861157213354,5757,1354211861157213354,9.79717439318e-17,0.00172227795323,0.0113075043022,0.00172738249568,-0.00778659356641,0.0,-0.00172738249568,0.001012684,0.0,-4.86100503207,0.0,-3200.0,-200.0,-800.0,32.0,0.0,0.0,0.0,0.0
1354211861167189687,5758,1354211861167189687,9.79717439318e-17,0.00170987613046,0.0269179034109,0.00171129162294,-0.00118224289016,0.0,-0.00171129162294,0.00098226,0.0,-4.51448277292,0.0,-3200.0,-200.0,-800.0,32.0,0.0,0.0,0.0,0.0
1354211861177210217,5759,1354211861177210217,9.79717439318e-17,0.00166208581373,-0.00287294199288,0.00165845713905,-0.00473922643307,0.0,-0.00165845713905,0.001001929,0.0,-4.4366198632,0.0,-3200.0,-200.0,-800.0,32.0,0.0,0.0,0.0,0.0
1354211861187183543,5760,1354211861187183543,9.79717439318e-17,0.00170437610984,0.0116318579565,0.00169962309884,0.0043081863811,0.0,-0.00169962309884,0.00096919,0.0,-4.10733944676,0.0,-3200.0,-200.0,-800.0,32.0,0.0,0.0,0.0,0.0
1354211861197209626,5761,1354211861197209626,9.79717439318e-17,0.00170816567462,-0.0191820779346,0.00173159072992,0.000319312281625,0.0,-0.00173159072992,0.001000064,0.0,-4.17627455559,0.0,-3200.0,-200.0,-800.0,32.0,0.0,0.0,0.0,0.0
1354211861207198270,5762,1354211861207198270,9.79717439318e-17,0.00166449846809,0.0124631174895,0.00164818272906,-0.00448035703422,0.0,-0.00164818272906,0.000999404,0.0,-4.00384012293,0.0,-3200.0,-200.0,-800.0,32.0,0.0,0.0,0.0,0.0
1354211861217197977,5763,1354211861217197977,9.79717439318e-17,0.00170798301676,-0.00378320709223,0.00170630018316,0.00434805499345,0.0,-0.00170630018316,0.001001386,0.0,-4.29442737489,0.0,-3200.0,-200.0,-800.0,32.0,0.0,0.0,0.0,0.0
1354211861227194852,5764,1354211861227194852,9.79717439318e-17,0.001657488649,-0.0181338266658,0.00167578107387,-0.00508857770251,0.0,-0.00167578107387,0.001012654,0.0,-4.52666092164,0.0,-3200.0,-200.0,-800.0,32.0,0.0,0.0,0.0,0.0
1354211861237207925,5765,1354211861237207925,9.79717439318e-17,0.00157537183899,-0.00111750093728,0.00159940772275,-0.00815918386747,0.0,-0.00159940772275,0.000967951,0.0,-4.2747047394,0.0,-3200.0,-200.0,-800.0,32.0,0.0,0.0,0.0,0.0
1354211861247222292,5766,1354211861247222292,9.79717439318e-17,0.00166107889605,-0.00282973337544,0.00164865039766,0.00858941912797,0.0,-0.00164865039766,0.000999135,0.0,-4.29642481238,0.0,-3200.0,-200.0,-800.0,32.0,0.0,0.0,0.0,0.0
1354211861257241435,5767,1354211861257241435,9.79717439318e-17,0.00162084029618,-0.0173862921126,0.00164074086878,-0.00392645175156,0.0,-0.00164074086878,0.00100224,0.0,-4.08080969032,0.0,-3200.0,-200.0,-800.0,32.0,0.0,0.0,0.0,0.0
1354211861267210010,5768,1354211861267210010,9.79717439318e-17,0.00160198075218,-0.00163345054825,0.00161156956241,-0.00191832926738,0.0,-0.00161156956241,0.000998558,0.0,-4.13010843541,0.0,-3200.0,-200.0,-800.0,32.0,0.0,0.0,0.0,0.0
1354211861277204678,5769,1354211861277204678,9.79717439318e-17,0.00159895297578,0.0138044803313,0.00159242381906,-0.000242011478128,0.0,-0.00159242381906,0.000990351,0.0,-4.46869693156,0.0,-3200.0,-200.0,-800.0,32.0,0.0,0.0,0.0,0.0
1354211861287204923,5770,1354211861287204923,9.79717439318e-17,0.00158276701585,-0.0473400766395,0.00161644987957,-0.00178594267178,0.0,-0.00161644987957,0.000982967,0.0,-4.60238569607,0.0,-3200.0,-200.0,-800.0,32.0,0.0,0.0,0.0,0.0
1354211861297254134,5771,1354211861297254134,9.79717439318e-17,0.00160696036705,-0.0170720392013,0.00163277041983,0.00254804339647,0.0,-0.00163277041983,0.001017038,0.0,-4.6735288397,0.0,-3200.0,-200.0,-800.0,32.0,0.0,0.0,0.0,0.0
1354211861307194360,5772,1354211861307194360,9.79717439318e-17,0.00167444594602,0.0276442088031,0.00165273320986,0.00685254221803,0.0,-0.00165273320986,0.00098765,0.0,-4.79987725618,0.0,-3200.0,-200.0,-800.0,32.0,0.0,0.0,0.0,0.0
1354211861317218642,5773,1354211861317218642,9.79717439318e-17,0.00162996024415,-0.0329510476219,0.0016537923313,-0.00448826638217,0.0,-0.0016537923313,0.001006399,0.0,-4.33156567835,0.0,-3200.0,-200.0,-800.0,32.0,0.0,0.0,0.0,0.0
1354211861327252691,5774,1354211861327252691,9.79717439318e-17,0.00164808972667,-0.00256932996603,0.00165028119432,0.00182898600802,0.0,-0.00165028119432,0.001040366,0.0,-4.12702293183,0.0,-3200.0,-200.0,-800.0,32.0,0.0,0.0,0.0,0.0
1354211861337180732,5775,1354211861337180732,9.79717439318e-17,0.00174518807863,0.0108289303835,0.0017449584107,0.00976298643498,0.0,-0.0017449584107,0.000971623,0.0,-4.28419720312,0.0,-3200.0,-200.0,-800.0,32.0,0.0,0.0,0.0,0.0
1354211861347256539,5776,1354211861347256539,9.79717439318e-17,0.00184326566004,0.00885461498818,0.00182481403181,0.00971211705312,0.0,-0.00182481403181,0.001031496,0.0,-4.42169538093,0.0,-3200.0,-200.0,-800.0,32.0,0.0,0.0,0.0,0.0
1354211861357197747,5777,1354211861357197747,9.79717439318e-17,0.00178419169907,-0.05143731242,0.0018136241682,-0.00603391541272,0.0,-0.0018136241682,0.000985449,0.0,-4.18108401614,0.0,-3200.0,-200.0,-800.0,32.0,0.0,0.0,0.0,0.0
1354211861367214578,5778,1354211861367214578,9.79717439318e-17,0.0018009366143,-0.00563483207374,0.00182487106375,0.00159143507625,0.0,-0.00182487106375,0.001000195,0.0,-4.23979620164,0.0,-3200.0,-200.0,-800.0,32.0,0.0,0.0,0.0,0.0
1354211861377178753,5779,1354211861377178753,9.79717439318e-17,0.00182038182924,0.00933460078884,0.00180778299108,0.0020472408236,0.0,-0.00180778299108,0.000968179,0.0,-3.91069613753,0.0,-3200.0,-200.0,-800.0,32.0,0.0,0.0,0.0,0.0
1354211861387178094,5780,1354211861387178094,9.79717439318e-17,0.00187788683906,0.00816466212484,0.00187384598444,0.00573649163183,0.0,-0.00187384598444,0.000968967,0.0,-3.82102576578,0.0,-3200.0,-200.0,-800.0,32.0,0.0,0.0,0.0,0.0
1354211861397238517,5781,1354211861397238517,9.79717439318e-17,0.00182618236221,0.0091985258386,0.00182912076725,-0.00512567431802,0.0,-0.00182912076725,0.001011656,0.0,-3.6964832546,0.0,-3200.0,-200.0,-800.0,32.0,0.0,0.0,0.0,0.0
1354211861407195789,5782,1354211861407195789,9.79717439318e-17,0.00182500607777,-0.0215149033763,0.00183418164782,-0.000160073599679,0.0,-0.00183418164782,0.000984028,0.0,-3.88991909104,0.0,-3200.0,-200.0,-800.0,32.0,0.0,0.0,0.0,0.0
1354211861417214666,5783,1354211861417214666,9.79717439318e-17,0.00186751411695,0.00838855476257,0.00185672912912,0.00418963240853,0.0,-0.00185672912912,0.001002109,0.0,-4.09237779426,0.0,-3200.0,-200.0,-800.0,32.0,0.0,0.0,0.0,0.0
1354211861427231547,5784,1354211861427231547,9.79717439318e-17,0.00189965770835,0.00774141966135,0.00189295389956,0.0032535713705,0.0,-0.00189295389956,0.001034226,0.0,-4.36595020162,0.0,-3200.0,-200.0,-800.0,32.0,0.0,0.0,0.0,0.0
1354211861437176946,5785,1354211861437176946,9.79717439318e-17,0.00188528849887,0.00798722781819,0.00187544852113,-0.00115255850032,0.0,-0.00187544852113,0.000967614,0.0,-4.58657435169,0.0,-3200.0,-200.0,-800.0,32.0,0.0,0.0,0.0,0.0
1354211861447238036,5786,1354211861447238036,9.79717439318e-17,0.00180284324121,-0.0211056748019,0.0018398828999,-0.00813667482465,0.0,-0.0018398828999,0.00099693,0.0,-4.84389332698,0.0,-3200.0,-200.0,-800.0,32.0,0.0,0.0,0.0,0.0
1354211861457218389,5787,1354211861457218389,9.79717439318e-17,0.0018610496031,0.00846248804692,0.00184369281263,0.00597262654364,0.0,-0.00184369281263,0.001000112,0.0,-4.78259324372,0.0,-3200.0,-200.0,-800.0,32.0,0.0,0.0,0.0,0.0
1354211861467193000,5788,1354211861467193000,9.79717439318e-17,0.00187991916982,0.00808454071751,0.00188241740123,0.00194131842753,0.0,-0.00188241740123,0.000981175,0.0,-5.00289116523,0.0,-3200.0,-200.0,-800.0,32.0,0.0,0.0,0.0,0.0
1354211861477176523,5789,1354211861477176523,9.79717439318e-17,0.0018574596045,0.00854545441886,0.001852412182,-0.00230821803398,0.0,-0.001852412182,0.000981783,0.0,-5.04102110696,0.0,-3200.0,-200.0,-800.0,32.0,0.0,0.0,0.0,0.0
1354211861487178109,5790,1354211861487178109,9.79717439318e-17,0.00176896883884,-0.0204106939837,0.00178555071545,-0.0088288045617,0.0,-0.00178555071545,0.001001057,0.0,-4.61257260487,0.0,-3200.0,-200.0,-800.0,32.0,0.0,0.0,0.0,0.0
1354211861497252748,5791,1354211861497252748,9.79717439318e-17,0.00185962844411,-0.00683258750866,0.00185795980639,0.00891777956011,0.0,-0.00185795980639,0.001012893,0.0,-4.71742684057,0.0,-3200.0,-200.0,-800.0,32.0,0.0,0.0,0.0,0.0
1354211861507210345,5792,1354211861507210345,9.79717439318e-17,0.00174415917694,-0.00450154189936,0.00176571988725,-0.0115076563154,0.0,-0.00176571988725,0.001016444,0.0,-4.87700988535,0.0,-3200.0,-200.0,-800.0,32.0,0.0,0.0,0.0,0.0
1354211861517231932,5793,1354211861517231932,9.79717439318e-17,0.00166276133564,-0.018261797502,0.00168171166647,-0.00797512428973,0.0,-0.00168171166647,0.001020292,0.0,-4.9752316603,0.0,-3200.0,-200.0,-800.0,32.0,0.0,0.0,0.0,0.0
1354211861527230797,5794,1354211861527230797,9.79717439318e-17,0.00163423882106,-0.0177017437692,0.00164267559659,-0.00269498652307,0.0,-0.00164267559659,0.001022317,0.0,-5.1609704817,0.0,-3200.0,-200.0,-800.0,32.0,0.0,0.0,0.0,0.0
1354211861537180195,5795,1354211861537180195,9.79717439318e-17,0.00158440442351,-0.0166864156859,0.0015929046662,-0.0049688090771,0.0,-0.0015929046662,0.000968516,0.0,-5.27648002319,0.0,-3200.0,-200.0,-800.0,32.0,0.0,0.0,0.0,0.0
1354211861547231296,5796,1354211861547231296,9.79717439318e-17,0.00164189355387,0.0129332410662,0.0016401287395,0.00565500457193,0.0,-0.0016401287395,0.00103025,0.0,-5.37425075973,0.0,-3200.0,-200.0,-800.0,32.0,0.0,0.0,0.0,0.0
1354211861557222786,5797,1354211861557222786,9.79717439318e-17,0.00161604308582,-0.0634070918021,0.00165262649662,-0.00264719374395,0.0,-0.00165262649662,0.001013303,0.0,-5.08056779756,0.0,-3200.0,-200.0,-800.0,32.0,0.0,0.0,0.0,0.0
1354211861567192841,5798,1354211861567192841,9.79717439318e-17,0.00161080657231,-0.0018364963162,0.00161111216408,-0.000436915144618,0.0,-0.00161111216408,0.000985592,0.0,-4.93884690097,0.0,-3200.0,-200.0,-800.0,32.0,0.0,0.0,0.0,0.0
1354211861577193597,5799,1354211861577193597,9.79717439318e-17,0.0016099931601,0.0289149368466,0.00158914440744,3.61398835692e-05,0.0,-0.00158914440744,0.000980223,0.0,-4.66733561552,0.0,-3200.0,-200.0,-800.0,32.0,0.0,0.0,0.0,0.0
1354211861587178093,5800,1354211861587178093,9.79717439318e-17,0.00167796863935,0.0275227230601,0.00165332774512,0.00694291899191,0.0,-0.00165332774512,0.000968709,0.0,-4.34239344603,0.0,-3200.0,-200.0,-800.0,32.0,0.0,0.0,0.0,0.0
1354211861597212758,5801,1354211861597212758,9.79717439318e-17,0.00174580951055,-0.019952430706,0.00174279405864,0.00664704871819,0.0,-0.00174279405864,0.001005168,0.0,-4.53912893372,0.0,-3200.0,-200.0,-800.0,32.0,0.0,0.0,0.0,0.0
1354211861607209035,5802,1354211861607209035,9.79717439318e-17,0.00164382746049,-0.0486350872319,0.00169601919125,-0.0102062857132,0.0,-0.00169601919125,0.000998237,0.0,-4.53729689909,0.0,-3200.0,-200.0,-800.0,32.0,0.0,0.0,0.0,0.0
1354211861617212024,5803,1354211861617212024,9.79717439318e-17,0.00164298563639,0.0129081408159,0.00161669100235,-0.000231722319758,0.0,-0.00161669100235,0.001002097,0.0,-4.80246260168,0.0,-3200.0,-200.0,-800.0,32.0,0.0,0.0,0.0,0.0
1354211861627222986,5804,1354211861627222986,9.79717439318e-17,0.00164481854312,-0.0178838143374,0.0016567327491,0.000245740101557,0.0,-0.0016567327491,0.001026436,0.0,-5.01977284925,0.0,-3200.0,-200.0,-800.0,32.0,0.0,0.0,0.0,0.0
1354211861637196030,5805,1354211861637196030,9.79717439318e-17,0.00171492983227,-0.0193014434297,0.00173820813974,0.00690693453959,0.0,-0.00173820813974,0.000980727,0.0,-5.1969447759,0.0,-3200.0,-200.0,-800.0,32.0,0.0,0.0,0.0,0.0
1354211861647210383,5806,1354211861647210383,9.79717439318e-17,0.00173448190028,0.0110630370038,0.0017305919774,0.00188543961723,0.0,-0.0017305919774,0.000999207,0.0,-5.34276462943,0.0,-3200.0,-200.0,-800.0,32.0,0.0,0.0,0.0,0.0
1354211861657209107,5807,1354211861657209107,9.79717439318e-17,0.00173953552056,-0.00441861729987,0.00173015890705,0.000591417907991,0.0,-0.00173015890705,0.001012052,0.0,-5.35638235719,0.0,-3200.0,-200.0,-800.0,32.0,0.0,0.0,0.0,0.0
1354211861667193009,5808,1354211861667193009,9.79717439318e-17,0.00170151042979,0.0117218094724,0.00170589347881,-0.00374628606923,0.0,-0.00170589347881,0.000985958,0.0,-5.14449594164,0.0,-3200.0,-200.0,-800.0,32.0,0.0,0.0,0.0,0.0
1354211861677178970,5809,1354211861677178970,9.79717439318e-17,0.00167358796592,-0.00307924696123,0.0016673224313,-0.00281798140846,0.0,-0.0016673224313,0.000969659,0.0,-5.22453234706,0.0,-3200.0,-200.0,-800.0,32.0,0.0,0.0,0.0,0.0
1354211861687190586,5810,1354211861687190586,9.79717439318e-17,0.00170792649532,-0.0191233141245,0.00174050387195,0.00328884056602,0.0,-0.00174050387195,0.000980032,0.0,-5.29425519665,0.0,-3200.0,-200.0,-800.0,32.0,0.0,0.0,0.0,0.0
1354211861697222171,5811,1354211861697222171,9.79717439318e-17,0.00171668722756,0.0114498165789,0.00171805659517,0.000894930119672,0.0,-0.00171805659517,0.001011796,0.0,-5.38454797568,0.0,-3200.0,-200.0,-800.0,32.0,0.0,0.0,0.0,0.0
1354211861707208771,5812,1354211861707208771,9.79717439318e-17,0.00167099186973,0.0123881279223,0.00167352587651,-0.0046643564652,0.0,-0.00167352587651,0.000997726,0.0,-5.42540333047,0.0,-3200.0,-200.0,-800.0,32.0,0.0,0.0,0.0,0.0
1354211861717228949,5813,1354211861717228949,9.79717439318e-17,0.00171254246917,-0.00382351156033,0.00170801937325,0.0041446823442,0.0,-0.00170801937325,0.001024146,0.0,-5.38577969278,0.0,-3200.0,-200.0,-800.0,32.0,0.0,0.0,0.0,0.0
1354211861727237994,5814,1354211861727237994,9.79717439318e-17,0.0016666165477,-0.0029089201685,0.00166642917003,-0.00452723446528,0.0,-0.00166642917003,0.001019947,0.0,-5.20114088702,0.0,-3200.0,-200.0,-800.0,32.0,0.0,0.0,0.0,0.0
1354211861737178666,5815,1354211861737178666,9.79717439318e-17,0.00163883345859,-0.0176998136805,0.00166206627302,-0.00288678567193,0.0,-0.00166206627302,0.000970509,0.0,-4.9943070502,0.0,-3200.0,-200.0,-800.0,32.0,0.0,0.0,0.0,0.0
1354211861747212825,5816,1354211861747212825,9.79717439318e-17,0.00167394054008,-0.00303411283929,0.00167118917942,0.00356894996641,0.0,-0.00167118917942,0.001000833,0.0,-5.09993648668,0.0,-3200.0,-200.0,-800.0,32.0,0.0,0.0,0.0,0.0
1354211861757206042,5817,1354211861757206042,9.79717439318e-17,0.00168923637053,-0.0187158736263,0.00169016976734,0.00150134913946,0.0,-0.00169016976734,0.00099676,0.0,-5.06280758664,0.0,-3200.0,-200.0,-800.0,32.0,0.0,0.0,0.0,0.0
1354211861767191660,5818,1354211861767191660,9.79717439318e-17,0.0017138630457,-0.0192056744065,0.00174345866376,0.00226334089515,0.0,-0.00174345866376,0.000981204,0.0,-5.15925991191,0.0,-3200.0,-200.0,-800.0,32.0,0.0,0.0,0.0,0.0
1354211861777209909,5819,1354211861777209909,9.79717439318e-17,0.00176263289429,0.0105420856147,0.00175366347037,0.00497100243806,0.0,-0.00175366347037,0.001000423,0.0,-5.311922634,0.0,-3200.0,-200.0,-800.0,32.0,0.0,0.0,0.0,0.0
1354211861787190623,5820,1354211861787190623,9.79717439318e-17,0.00176007372739,-0.00477359620399,0.00176636905094,-0.000297988677237,0.0,-0.00176636905094,0.000980521,0.0,-5.43643485047,0.0,-3200.0,-200.0,-800.0,32.0,0.0,0.0,0.0,0.0
1354211861797217199,5821,1354211861797217199,9.79717439318e-17,0.00171772893584,-0.0500128700874,0.00175149772188,-0.00427310860195,0.0,-0.00175149772188,0.001006352,0.0,-5.4630450596,0.0,-3200.0,-200.0,-800.0,32.0,0.0,0.0,0.0,0.0
1354211861807195386,5822,1354211861807195386,9.79717439318e-17,0.00168345011494,-0.00318072663504,0.00169016016377,-0.00348836252723,0.0,-0.00169016016377,0.00099796,0.0,-5.2801530497,0.0,-3200.0,-200.0,-800.0,32.0,0.0,0.0,0.0,0.0
1354211861817224319,5823,1354211861817224319,9.79717439318e-17,0.00168222195281,-0.01854256362,0.00170171337548,-3.03430546863e-05,0.0,-0.00170171337548,0.001005206,0.0,-4.82213290826,0.0,-3200.0,-200.0,-800.0,32.0,0.0,0.0,0.0,0.0
1354211861827212657,5824,1354211861827212657,9.79717439318e-17,0.00165461147463,-0.00262088472438,0.00165077872743,-0.00269920975786,0.0,-0.00165077872743,0.001001685,0.0,-4.96481277541,0.0,-3200.0,-200.0,-800.0,32.0,0.0,0.0,0.0,0.0
1354211861837191587,5825,1354211861837191587,9.79717439318e-17,0.00161984203427,-0.00192372498566,0.00161764715396,-0.00341967974624,0.0,-0.00161764715396,0.000982884,0.0,-5.11445213102,0.0,-3200.0,-200.0,-800.0,32.0,0.0,0.0,0.0,0.0
1354211861847209427,5826,1354211861847209427,9.79717439318e-17,0.00161268115335,-0.00176248879242,0.0016321206095,-0.000831151654044,0.0,-0.0016321206095,0.000999691,0.0,-5.02028026381,0.0,-3200.0,-200.0,-800.0,32.0,0.0,0.0,0.0,0.0
1354211861857196210,5827,1354211861857196210,9.79717439318e-17,0.00163555930915,-0.00222917762904,0.00164655608563,0.00229157453364,0.0,-0.00164655608563,0.000983971,0.0,-4.96389420244,0.0,-3200.0,-200.0,-800.0,32.0,0.0,0.0,0.0,0.0
1354211861867189848,5828,1354211861867189848,9.79717439318e-17,0.0016546249711,-0.00263445443939,0.00165700074277,0.00201608266949,0.0,-0.00165700074277,0.000978942,0.0,-4.76848536519,0.0,-3200.0,-200.0,-800.0,32.0,0.0,0.0,0.0,0.0
1354211861877195185,5829,1354211861877195185,9.79717439318e-17,0.00157542813737,-0.0164241064514,0.00159947900354,-0.00789306387482,0.0,-0.00159947900354,0.000985066,0.0,-4.81302781085,0.0,-3200.0,-200.0,-800.0,32.0,0.0,0.0,0.0,0.0
1354211861887189585,5830,1354211861887189585,9.79717439318e-17,0.00163844723631,0.0130361764566,0.00160285553556,0.00644640866343,0.0,-0.00160285553556,0.000983056,0.0,-4.5774456602,0.0,-3200.0,-200.0,-800.0,32.0,0.0,0.0,0.0,0.0
1354211861897224363,5831,1354211861897224363,9.79717439318e-17,0.00167409601745,0.0123240101042,0.00166433391684,0.00349679991733,0.0,-0.00166433391684,0.001012899,0.0,-4.28592096969,0.0,-3200.0,-200.0,-800.0,32.0,0.0,0.0,0.0,0.0
1354211861907202315,5832,1354211861907202315,9.79717439318e-17,0.00163664497493,0.0130719948714,0.00161013750692,-0.00367296014891,0.0,-0.00161013750692,0.0009869,0.0,-4.31512832834,0.0,-3200.0,-200.0,-800.0,32.0,0.0,0.0,0.0,0.0
1354211861917197993,5833,1354211861917197993,9.79717439318e-17,0.00162766384675,0.0132388526598,0.0016287926923,-0.000804221889781,0.0,-0.0016287926923,0.000984722,0.0,-4.58705602342,0.0,-3200.0,-200.0,-800.0,32.0,0.0,0.0,0.0,0.0
1354211861927211817,5834,1354211861927211817,9.79717439318e-17,0.00159333183515,-0.00143603042319,0.0016148507267,-0.00351390883926,0.0,-0.0016148507267,0.001013523,0.0,-4.84352655873,0.0,-3200.0,-200.0,-800.0,32.0,0.0,0.0,0.0,0.0
1354211861937192236,5835,1354211861937192236,9.79717439318e-17,0.00158238080462,-0.00120544898748,0.00157531617585,-0.001123221991,0.0,-0.00157531617585,0.000982094,0.0,-4.7716187894,0.0,-3200.0,-200.0,-800.0,32.0,0.0,0.0,0.0,0.0
1354211861947232152,5836,1354211861947232152,9.79717439318e-17,0.00156941551598,0.0144644313194,0.00158355651879,-0.00146725837298,0.0,-0.00158355651879,0.001020408,0.0,-4.71152785014,0.0,-3200.0,-200.0,-800.0,32.0,0.0,0.0,0.0,0.0
1354211861957211265,5837,1354211861957211265,9.79717439318e-17,0.00162760012701,0.0132997151895,0.0016283265199,0.00577402845009,0.0,-0.0016283265199,0.001014274,0.0,-4.90717682469,0.0,-3200.0,-200.0,-800.0,32.0,0.0,0.0,0.0,0.0
1354211861967192691,5838,1354211861967192691,9.79717439318e-17,0.00158602772373,0.0141641905916,0.00157917499251,-0.00431870758982,0.0,-0.00157917499251,0.000983502,0.0,-5.03429623849,0.0,-3200.0,-200.0,-800.0,32.0,0.0,0.0,0.0,0.0
1354211861977196031,5839,1354211861977196031,9.79717439318e-17,0.00162057873404,-0.0172924528711,0.00160913012865,0.00352093662027,0.0,-0.00160913012865,0.000986123,0.0,-5.17591991551,0.0,-3200.0,-200.0,-800.0,32.0,0.0,0.0,0.0,0.0
1354211861987194315,5840,1354211861987194315,9.79717439318e-17,0.00165574700972,-0.00263312208499,0.00166757970322,0.00351242985519,0.0,-0.00166757970322,0.000995621,0.0,-5.29155031985,0.0,-3200.0,-200.0,-800.0,32.0,0.0,0.0,0.0,0.0
1354211861997217918,5841,1354211861997217918,9.79717439318e-17,0.0016748102181,-0.00302586841214,0.00166540980076,0.00195756767925,0.0,-0.00166540980076,0.000999861,0.0,-5.38099832908,0.0,-3200.0,-200.0,-800.0,32.0,0.0,0.0,0.0,0.0
1354211862007210078,5842,1354211862007210078,9.79717439318e-17,0.00166932945615,-0.0183068654643,0.00168805423006,-0.00041384447075,0.0,-0.00168805423006,0.001013187,0.0,-5.49319453269,0.0,-3200.0,-200.0,-800.0,32.0,0.0,0.0,0.0,0.0
1354211862017193599,5843,1354211862017193599,9.79717439318e-17,0.00162723692059,-0.00209660349607,0.0016439716809,-0.00410731266618,0.0,-0.0016439716809,0.00098027,0.0,-5.47727433355,0.0,-3200.0,-200.0,-800.0,32.0,0.0,0.0,0.0,0.0
1354211862027238634,5844,1354211862027238634,9.79717439318e-17,0.00161531965213,-0.0172408750803,0.00164773944217,-0.00109474102513,0.0,-0.00164773944217,0.001026386,0.0,-5.29202940739,0.0,-3200.0,-200.0,-800.0,32.0,0.0,0.0,0.0,0.0
1354211862037212132,5845,1354211862037212132,9.79717439318e-17,0.00157311584548,-0.00100915768617,0.00159419341769,-0.00435089957675,0.0,-0.00159419341769,0.000990298,0.0,-5.42007230805,0.0,-3200.0,-200.0,-800.0,32.0,0.0,0.0,0.0,0.0
1354211862047188439,5846,1354211862047188439,9.79717439318e-17,0.00159387954192,-0.0167853981612,0.00159081836686,0.00201167731653,0.0,-0.00159081836686,0.000994157,0.0,-5.23335619717,0.0,-3200.0,-200.0,-800.0,32.0,0.0,0.0,0.0,0.0
1354211862057171799,5847,1354211862057171799,9.79717439318e-17,0.00159521164018,-0.0014473406257,0.00160741907243,0.000169565161214,0.0,-0.00160741907243,0.000988802,0.0,-5.37210050804,0.0,-3200.0,-200.0,-800.0,32.0,0.0,0.0,0.0,0.0
1354211862067179984,5848,1354211862067179984,9.79717439318e-17,0.00172129964234,0.0113720840301,0.00169156456686,0.0126021186264,0.0,-0.00169156456686,0.000999379,0.0,-5.48603202675,0.0,-3200.0,-200.0,-800.0,32.0,0.0,0.0,0.0,0.0
1354211862077119749,5849,1354211862077119749,9.79717439318e-17,0.001683671645,-0.0186229107962,0.0016998520092,-0.00376481162231,0.0,-0.0016998520092,0.000998228,0.0,-5.54116097894,0.0,-3200.0,-200.0,-800.0,32.0,0.0,0.0,0.0,0.0
1354211862087154161,5850,1354211862087154161,9.79717439318e-17,0.00168485328644,-0.0186660298351,0.00167043257304,0.000258758593518,0.0,-0.00167043257304,0.001022417,0.0,-5.40550380744,0.0,-3200.0,-200.0,-800.0,32.0,0.0,0.0,0.0,0.0
1354211862098178728,5851,1354211862098178728,9.79717439318e-17,0.00166260813304,-0.00254116309786,0.00168114935583,-0.00314642896608,0.0,-0.00168114935583,0.000964056,0.0,-4.92998497941,0.0,-3200.0,-200.0,-800.0,32.0,0.0,0.0,0.0,0.0
1354211862108190671,5852,1354211862108190671,9.79717439318e-17,0.00160051175611,0.0293985907866,0.00159724541257,-0.0059088276375,0.0,-0.00159724541257,0.000987226,0.0,-4.75948429638,0.0,-3200.0,-200.0,-800.0,32.0,0.0,0.0,0.0,0.0
1354211862118198733,5853,1354211862118198733,9.79717439318e-17,0.00166839402393,0.012601062525,0.0016525576437,0.00701036495276,0.0,-0.0016525576437,0.000995635,0.0,-4.64366731264,0.0,-3200.0,-200.0,-800.0,32.0,0.0,0.0,0.0,0.0
1354211862128141069,5854,1354211862128141069,9.79717439318e-17,0.00171005771713,-0.00363611591898,0.00170555034243,0.00428526430303,0.0,-0.00170555034243,0.00100369,0.0,-4.85548800238,0.0,-3200.0,-200.0,-800.0,32.0,0.0,0.0,0.0,0.0
1354211862138164819,5855,1354211862138164819,9.79717439318e-17,0.00177380624547,0.0104188422556,0.00176209509318,0.00648092934462,0.0,-0.00176209509318,0.001002305,0.0,-5.02912155072,0.0,-3200.0,-200.0,-800.0,32.0,0.0,0.0,0.0,0.0
1354211862148141483,5856,1354211862148141483,9.79717439318e-17,0.00183629000906,-0.00624456699938,0.00183375286575,0.00639697044143,0.0,-0.00183375286575,0.000989596,0.0,-5.20471372097,0.0,-3200.0,-200.0,-800.0,32.0,0.0,0.0,0.0,0.0
1354211862158152645,5857,1354211862158152645,9.79717439318e-17,0.00191948980433,0.022811213843,0.00189152091601,0.00836139337714,0.0,-0.00189152091601,0.000999039,0.0,-5.14021776244,0.0,-3200.0,-200.0,-800.0,32.0,0.0,0.0,0.0,0.0
1354211862168153136,5858,1354211862168153136,9.79717439318e-17,0.0018333237074,-0.0215920046879,0.00184632820108,-0.00848336331553,0.0,-0.00184632820108,0.001002287,0.0,-5.2960965592,0.0,-3200.0,-200.0,-800.0,32.0,0.0,0.0,0.0,0.0
1354211862178145811,5859,1354211862178145811,9.79717439318e-17,0.0018182461418,-0.02129804831,0.00183696774317,-0.00150492153863,0.0,-0.00183696774317,0.001000594,0.0,-5.31380347111,0.0,-3200.0,-200.0,-800.0,32.0,0.0,0.0,0.0,0.0
1354211862188141879,5860,1354211862188141879,9.79717439318e-17,0.00170630875555,-0.0190425953529,0.00174492334822,-0.011164849316,0.0,-0.00174492334822,0.000984463,0.0,-5.33663615951,0.0,-3200.0,-200.0,-800.0,32.0,0.0,0.0,0.0,0.0
1354211862198123142,5861,1354211862198123142,9.79717439318e-17,0.00169775318299,0.0272336971751,0.00167845023671,-0.000268526535625,0.0,-0.00167845023671,0.000679416,0.0,-4.89078719764,0.0,-3200.0,-200.0,-800.0,32.0,0.0,0.0,0.0,0.0
1354211862208179877,5862,1354211862208179877,9.79717439318e-17,0.00177452724665,0.0102992005964,0.00176599836229,0.007684516415,0.0,-0.00176599836229,0.000989429,0.0,-4.88947637121,0.0,-3200.0,-200.0,-800.0,32.0,0.0,0.0,0.0,0.0
1354211862218174587,5863,1354211862218174587,9.79717439318e-17,0.00179647655629,-0.00549791071569,0.00181401057287,0.00200892773289,0.0,-0.00181401057287,0.000997994,0.0,-5.09052414925,0.0,-3200.0,-200.0,-800.0,32.0,0.0,0.0,0.0,0.0
1354211862228203544,5864,1354211862228203544,9.79717439318e-17,0.00182825735077,0.00921392785993,0.00183141543459,0.0032225270477,0.0,-0.00183141543459,0.000999889,0.0,-4.96926253562,0.0,-3200.0,-200.0,-800.0,32.0,0.0,0.0,0.0,0.0
1354211862238221724,5865,1354211862238221724,9.79717439318e-17,0.00173441763031,0.0111012873681,0.00173355781512,-0.00919001198131,0.0,-0.00173355781512,0.000997604,0.0,-4.63263969242,0.0,-3200.0,-200.0,-800.0,32.0,0.0,0.0,0.0,0.0
1354211862248216678,5866,1354211862248216678,9.79717439318e-17,0.00175470053127,0.0107006527606,0.00173607700852,0.00207919948163,0.0,-0.00173607700852,0.000988942,0.0,-4.84154499134,0.0,-3200.0,-200.0,-800.0,32.0,0.0,0.0,0.0,0.0
1354211862258203016,5867,1354211862258203016,9.79717439318e-17,0.001808188913,-0.00575576912548,0.00180149691548,0.00539551641865,0.0,-0.00180149691548,0.00101665,0.0,-4.80295712391,0.0,-3200.0,-200.0,-800.0,32.0,0.0,0.0,0.0,0.0
1354211862268213997,5868,1354211862268213997,9.79717439318e-17,0.00178451649234,0.0101023279949,0.00178565545173,-0.00234040645372,0.0,-0.00178565545173,0.001000416,0.0,-4.9512871904,0.0,-3200.0,-200.0,-800.0,32.0,0.0,0.0,0.0,0.0
1354211862278174965,5869,1354211862278174965,9.79717439318e-17,0.00169721167342,-0.00351559650587,0.0017073933334,-0.00880916774691,0.0,-0.0017073933334,0.000999519,0.0,-5.03801589388,0.0,-3200.0,-200.0,-800.0,32.0,0.0,0.0,0.0,0.0
1354211862288189996,5870,1354211862288189996,9.79717439318e-17,0.00170709588978,-0.0190690661055,0.00172425483844,0.000814524703423,0.0,-0.00172425483844,0.000997955,0.0,-4.90239725054,0.0,-3200.0,-200.0,-800.0,32.0,0.0,0.0,0.0,0.0
1354211862298176442,5871,1354211862298176442,9.79717439318e-17,0.00172682294705,0.0112680549683,0.00173174915205,0.00201015649872,0.0,-0.00173174915205,0.001000666,0.0,-4.78922530724,0.0,-3200.0,-200.0,-800.0,32.0,0.0,0.0,0.0,0.0
1354211862308176603,5872,1354211862308176603,9.79717439318e-17,0.00169999625267,0.0271690684806,0.00171656067874,-0.00261714704503,0.0,-0.00171656067874,0.000987514,0.0,-4.93366097785,0.0,-3200.0,-200.0,-800.0,32.0,0.0,0.0,0.0,0.0
1354211862318176903,5873,1354211862318176903,9.79717439318e-17,0.0016550115557,0.0127075118977,0.00164783274273,-0.00453834135082,0.0,-0.00164783274273,0.000986957,0.0,-5.08832035498,0.0,-3200.0,-200.0,-800.0,32.0,0.0,0.0,0.0,0.0
1354211862328176686,5874,1354211862328176686,9.79717439318e-17,0.00166006616205,-0.00277182197183,0.00165945529133,0.000555541429299,0.0,-0.00165945529133,0.000987058,0.0,-5.10571226522,0.0,-3200.0,-200.0,-800.0,32.0,0.0,0.0,0.0,0.0
1354211862338192827,5875,1354211862338192827,9.79717439318e-17,0.00167520186812,0.0123243399421,0.00168760817833,0.00147909315539,0.0,-0.00168760817833,0.001003257,0.0,-5.19859966194,0.0,-3200.0,-200.0,-800.0,32.0,0.0,0.0,0.0,0.0
1354211862348210231,5876,1354211862348210231,9.79717439318e-17,0.00161951939493,0.0134337649073,0.00162640918845,-0.00549327855699,0.0,-0.00162640918845,0.00100051,0.0,-5.03484189274,0.0,-3200.0,-200.0,-800.0,32.0,0.0,0.0,0.0,0.0
1354211862358200155,5877,1354211862358200155,9.79717439318e-17,0.00163378411937,0.0592623260489,0.00159117808458,0.00153601977278,0.0,-0.00159117808458,0.000986842,0.0,-5.10274749532,0.0,-3200.0,-200.0,-800.0,32.0,0.0,0.0,0.0,0.0
1354211862368208494,5878,1354211862368208494,9.79717439318e-17,0.00162803270754,0.0132612392522,0.00161323784893,-0.000628653467486,0.0,-0.00161323784893,0.001001444,0.0,-5.01332218989,0.0,-3200.0,-200.0,-800.0,32.0,0.0,0.0,0.0,0.0
1354211862378192922,5879,1354211862378192922,9.79717439318e-17,0.00155407569595,-0.000634294812731,0.00157400075981,-0.00730337857811,0.0,-0.00157400075981,0.000998386,0.0,-4.95819713615,0.0,-3200.0,-200.0,-800.0,32.0,0.0,0.0,0.0,0.0
1354211862388212814,5880,1354211862388212814,9.79717439318e-17,0.00159015422755,0.0140004458278,0.00158640945801,0.00363206637246,0.0,-0.00158640945801,0.001004339,0.0,-4.61189626581,0.0,-3200.0,-200.0,-800.0,32.0,0.0,0.0,0.0,0.0
1354211862398212215,5881,1354211862398212215,9.79717439318e-17,0.00147899008803,-0.0144943182697,0.00151488241643,-0.0111226540312,0.0,-0.00151488241643,0.00101475,0.0,-4.82583481613,0.0,-3200.0,-200.0,-800.0,32.0,0.0,0.0,0.0,0.0
1354211862408192564,5882,1354211862408192564,9.79717439318e-17,0.00158659947225,0.0294481492021,0.00155794245599,0.0108137103618,0.0,-0.00155794245599,0.000996369,0.0,-4.52570056284,0.0,-3200.0,-200.0,-800.0,32.0,0.0,0.0,0.0,0.0
1354211862418212085,5883,1354211862418212085,9.79717439318e-17,0.00147860209531,-0.014493895387,0.0014989039851,-0.010754180488,0.0,-0.0014989039851,0.00101097,0.0,-4.5808138095,0.0,-3200.0,-200.0,-800.0,32.0,0.0,0.0,0.0,0.0
1354211862428194345,5884,1354211862428194345,9.79717439318e-17,0.00153866166067,0.0150274684449,0.00152678221221,0.00603651184969,0.0,-0.00152678221221,0.000987593,0.0,-4.58298987155,0.0,-3200.0,-200.0,-800.0,32.0,0.0,0.0,0.0,0.0
1354211862438216738,5885,1354211862438216738,9.79717439318e-17,0.00157931125588,0.014193135799,0.00155005298555,0.00412643809836,0.0,-0.00155005298554,0.00100562,0.0,-4.54065515045,0.0,-3200.0,-200.0,-800.0,32.0,0.0,0.0,0.0,0.0
1354211862448213495,5886,1354211862448213495,9.79717439318e-17,0.00159636715643,-0.00151100999401,0.00158980905696,0.00165020511132,0.0,-0.00158980905696,0.001004878,0.0,-4.46731552271,0.0,-3200.0,-200.0,-800.0,32.0,0.0,0.0,0.0,0.0
1354211862458163588,5887,1354211862458163588,9.79717439318e-17,0.0016760774829,-0.00311820821908,0.0016889116072,0.00791286293083,0.0,-0.0016889116072,0.000999263,0.0,-4.47803406318,0.0,-3200.0,-200.0,-800.0,32.0,0.0,0.0,0.0,0.0
1354211862468196570,5888,1354211862468196570,9.79717439318e-17,0.00179187461049,0.00992535266102,0.00174980844132,0.0115413728248,0.0,-0.00174980844132,0.001000155,0.0,-4.15847229432,0.0,-3200.0,-200.0,-800.0,32.0,0.0,0.0,0.0,0.0
1354211862478211668,5889,1354211862478211668,9.79717439318e-17,0.00181316107001,0.0248619523983,0.0017872899261,0.00217204346304,0.0,-0.0017872899261,0.001000252,0.0,-4.206337839,0.0,-3200.0,-200.0,-800.0,32.0,0.0,0.0,0.0,0.0
1354211862488217650,5890,1354211862488217650,9.79717439318e-17,0.00176006223944,0.0105466073219,0.00176033364218,-0.00525000158847,0.0,-0.00176033364218,0.001002417,0.0,-4.53152936684,0.0,-3200.0,-200.0,-800.0,32.0,0.0,0.0,0.0,0.0
1354211862498210313,5891,1354211862498210313,0.0351744946543,0.00180105501978,0.00972009929898,0.00179029866407,0.00411804646289,0.502095988952,0.0333841959902,0.001032843,366.364769169,-4.7647531445,0.0,-3200.0,-200.0,-800.0,32.0,0.0,0.0,0.0,0.0
1354211862508160840,5892,1354211862508160840,0.0401954545438,0.00179268274327,-0.00546169827321,0.00179426039783,-0.000885924253059,0.50193730418,0.038401194146,0.00098376,377.962933388,-3.93479626354,0.0,-3200.0,-200.0,-800.0,32.0,0.0,0.0,0.0,0.0
1354211862518176677,5893,1354211862518176677,0.0452148275856,0.00177048541429,-0.00499187389757,0.0017772487119,-0.0023022827419,0.501758803783,0.0434375788737,0.000986264,389.327284419,-1.11960996999,0.0,-3200.0,-200.0,-800.0,32.0,0.0,0.0,0.0,0.0
1354211862528210175,5894,1354211862528210175,0.0502324156235,0.00177739046038,-0.0205145695791,0.00180104838373,0.000841032565352,0.501560494807,0.0484313672398,0.001019329,400.244622291,4.98823661652,0.0,-3200.0,-200.0,-800.0,32.0,0.0,0.0,0.0,0.0
1354211862538222675,5895,1354211862538222675,0.0552480205715,0.00188823738357,0.00801918623374,0.00184885936127,0.0108772780061,0.501342385082,0.0533991612102,0.001004758,410.57080423,17.5652337822,0.0,-3200.0,-200.0,-800.0,32.0,0.0,0.0,0.0,0.0
1354211862548212510,5896,1354211862548212510,0.0602614444223,0.00263625967576,0.115877021401,0.00242282609089,0.0750138337316,0.501104483218,0.0578386183314,0.001001086,414.548899053,38.715825502,0.0,-3200.0,-200.0,-800.0,32.0,0.0,0.0,0.0,0.0
1354211862558179947,5897,1354211862558179947,0.0652724892545,0.00532326285296,0.384428040311,0.00462368469792,0.269610215247,0.500846798607,0.0606488045566,0.001006674,371.917712332,64.3122999643,0.0,-3200.0,-200.0,-800.0,32.0,0.0,0.0,0.0,0.0
1354211862568190202,5898,1354211862568190202,0.0702809572406,0.0110888126623,0.729188790634,0.00966640599342,0.576001132167,0.500569341422,0.0606145512472,0.000998335,217.128367589,90.5736135519,0.0,-3200.0,-200.0,-800.0,32.0,0.0,0.0,0.0,0.0
1354211862578207348,5899,1354211862578207348,0.0752866506548,0.0210518347183,1.15826339344,0.0187748294384,0.994541617005,0.500272122616,0.0565118212164,0.001011172,-29.4831198673,111.579744174,0.0,-3200.0,-200.0,-800.0,32.0,0.0,0.0,0.0,0.0
1354211862588210754,5900,1354211862588210754,0.080289371881,0.0343328463911,1.39731029492,0.0315614093885,1.32770463823,0.499955153924,0.0487279624925,0.001000164,-229.798192,116.381564959,0.0,-3200.0,-200.0,-800.0,32.0,0.0,0.0,0.0,0.0
1354211862598210962,5901,1354211862598210962,0.0852889234202,0.0477791114781,1.2794125423,0.0451613592531,1.34474321246,0.499618447858,0.0401275641671,0.000999678,-258.387208098,103.493914825,0.0,-3200.0,-200.0,-800.0,32.0,0.0,0.0,0.0,0.0
1354211862608164582,5902,1354211862608164582,0.0902851078988,0.0592176855975,0.986849169543,0.0571624540999,1.14868656259,0.499262017711,0.0331226537989,0.000999089,-167.726347725,87.3987007228,0.0,-3200.0,-200.0,-800.0,32.0,0.0,0.0,0.0,0.0
1354211862618208947,5903,1354211862618208947,0.0952777280759,0.0679289460573,0.734025911766,0.0663824844299,0.866762227743,0.498885877555,0.028895243646,0.001000695,-20.0773614803,72.0844500628,0.0,-3200.0,-200.0,-800.0,32.0,0.0,0.0,0.0,0.0
1354211862628184589,5904,1354211862628184589,0.100266586851,0.0739978096812,0.488431639795,0.0729567580608,0.608447284342,0.498490042238,0.0273098287902,0.000967682,123.269199182,58.2475602107,0.0,-3200.0,-200.0,-800.0,32.0,0.0,0.0,0.0,0.0
1354211862638209104,5905,1354211862638209104,0.105251487274,0.0781901979506,0.326853754107,0.0774566064558,0.417908420509,0.498074527388,0.0277948808182,0.000994622,228.67422395,46.9388787882,0.0,-3200.0,-200.0,-800.0,32.0,0.0,0.0,0.0,0.0
1354211862648227273,5906,1354211862648227273,0.110232232548,0.0811630890966,0.266772727079,0.0806286305552,0.297051406588,0.497639349409,0.0296036019928,0.001014497,289.875907238,38.2530701235,0.0,-3200.0,-200.0,-800.0,32.0,0.0,0.0,0.0,0.0
1354211862658196511,5907,1354211862658196511,0.115208626042,0.0837043328607,0.246181500712,0.0832207742386,0.25487833359,0.49718452548,0.0319878518034,0.001018342,311.73807336,33.8803087815,0.0,-3200.0,-200.0,-800.0,32.0,0.0,0.0,0.0,0.0
1354211862668209222,5908,1354211862668209222,0.120180471297,0.0856942217575,0.221347045746,0.0853069145061,0.198739225388,0.496710073558,0.0348735567909,0.001000019,336.619797647,36.1982334757,0.0,-3200.0,-200.0,-800.0,32.0,0.0,0.0,0.0,0.0
1354211862678195840,5909,1354211862678195840,0.125147572032,0.0879671532834,0.252304467908,0.0874771743426,0.227599030816,0.496216012372,0.0376703976894,0.001000169,333.651624505,50.1870684709,0.0,-3200.0,-200.0,-800.0,32.0,0.0,0.0,0.0,0.0
1354211862688234940,5910,1354211862688234940,0.130109732156,0.0916387044443,0.439536498511,0.090762878258,0.365372234923,0.495702361428,0.039346853898,0.001021254,279.814609168,72.0485484395,0.0,-3200.0,-200.0,-800.0,32.0,0.0,0.0,0.0,0.0
1354211862698211487,5911,1354211862698211487,0.13506675577,0.097735030514,0.762203047417,0.0963056319615,0.610666135958,0.495169141003,0.0387611238085,0.001013401,146.173437181,96.0553822306,0.0,-3200.0,-200.0,-800.0,32.0,0.0,0.0,0.0,0.0
1354211862708164316,5912,1354211862708164316,0.14001844718,0.107139382774,1.09492421281,0.105066946149,0.945170835928,0.494616372149,0.0349515010307,0.000993042,-52.6894369488,114.644488194,0.0,-3200.0,-200.0,-800.0,32.0,0.0,0.0,0.0,0.0
1354211862718217851,5913,1354211862718217851,0.144964610902,0.118671340231,1.18486226369,0.116306537724,1.14793375551,0.494044076687,0.0286580731783,0.001010829,-179.734657375,118.827392847,0.0,-3200.0,-200.0,-800.0,32.0,0.0,0.0,0.0,0.0
1354211862728209931,5914,1354211862728209931,0.149905051669,0.129847587888,1.0359342156,0.12774403957,1.11778177395,0.493452277211,0.022161012099,0.001011569,-178.01629823,105.076612506,0.0,-3200.0,-200.0,-800.0,32.0,0.0,0.0,0.0,0.0
1354211862738208771,5915,1354211862738208771,0.154839574441,0.138774719278,0.763377283864,0.137164342887,0.892763295186,0.492840997084,0.0176752315539,0.000997346,-62.8020428859,88.6297177927,0.0,-3200.0,-200.0,-800.0,32.0,0.0,0.0,0.0,0.0
1354211862748211827,5916,1354211862748211827,0.159767984412,0.145178867255,0.495631827141,0.144073656502,0.640308843586,0.492210260438,0.0156943279102,0.001000042,76.1149351827,73.3289448169,0.0,-3200.0,-200.0,-800.0,32.0,0.0,0.0,0.0,0.0
1354211862758196060,5917,1354211862758196060,0.164690087016,0.149344778715,0.365352800773,0.148626550336,0.417208388557,0.491560092174,0.0160635366798,0.000983297,199.573860456,60.2747934745,0.0,-3200.0,-200.0,-800.0,32.0,0.0,0.0,0.0,0.0
1354211862768208124,5918,1354211862768208124,0.169605687938,0.152368466139,0.258137537456,0.151788587557,0.302026639373,0.490890517959,0.017817100381,0.001011247,258.034235125,50.8876094856,0.0,-3200.0,-200.0,-800.0,32.0,0.0,0.0,0.0,0.0
1354211862778195308,5919,1354211862778195308,0.174514593117,0.154810427195,0.254918540335,0.154329059811,0.244552469848,0.490201564227,0.0201855333059,0.000985749,285.57763044,47.9129390775,0.0,-3200.0,-200.0,-800.0,32.0,0.0,0.0,0.0,0.0
1354211862788193434,5920,1354211862788193434,0.17941660876,0.157148380392,0.238448943834,0.156666905747,0.233811860592,0.489493258177,0.0227497030125,0.00097888,294.718159002,56.9740026349,0.0,-3200.0,-200.0,-800.0,32.0,0.0,0.0,0.0,0.0
1354211862798214872,5921,1354211862798214872,0.184311541341,0.160386641658,0.372894893833,0.159632804114,0.323242289126,0.488765627771,0.0246787372271,0.001002942,263.051186882,76.0730899327,0.0,-3200.0,-200.0,-800.0,32.0,0.0,0.0,0.0,0.0
1354211862808185751,5922,1354211862808185751,0.189199197619,0.165784145382,0.678943540066,0.164521516416,0.541653496951,0.488018701735,0.0246776812025,0.001010701,149.797739445,99.2286200767,0.0,-3200.0,-200.0,-800.0,32.0,0.0,0.0,0.0,0.0
1354211862818213186,5923,1354211862818213186,0.194079384636,0.174273684951,0.984048978314,0.172356276373,0.846548597653,0.487252509556,0.0217231082627,0.000996437,-30.4584221211,118.468782353,0.0,-3200.0,-200.0,-800.0,32.0,0.0,0.0,0.0,0.0
1354211862828199487,5924,1354211862828199487,0.198951909732,0.185023678111,1.10512473894,0.182843937114,1.0762863952,0.486467081482,0.0161079726181,0.001004962,-172.298282224,123.131925531,0.0,-3200.0,-200.0,-800.0,32.0,0.0,0.0,0.0,0.0
1354211862838207618,5925,1354211862838207618,0.203816580547,0.195596673008,0.983798026336,0.193570952539,1.05622876667,0.485662448521,0.010245628008,0.000997295,-174.761875039,109.699371668,0.0,-3200.0,-200.0,-800.0,32.0,0.0,0.0,0.0,0.0
1354211862848216854,5926,1354211862848216854,0.208673205032,0.204145272146,0.74960932212,0.202596194943,0.85438842882,0.484838642438,0.00607701008877,0.001016113,-71.2967958633,92.9822451222,0.0,-3200.0,-200.0,-800.0,32.0,0.0,0.0,0.0,0.0
1354211862858198452,5927,1354211862858198452,0.213521591456,0.210268146146,0.502920273763,0.209210990015,0.613264435089,0.483995695756,0.00431060144142,0.000987737,61.6185849952,77.2404251329,0.0,-3200.0,-200.0,-800.0,32.0,0.0,0.0,0.0,0.0
1354211862868213115,5928,1354211862868213115,0.218361548414,0.214147774784,0.301550447927,0.213511119713,0.387321225365,0.483133641752,0.00485042870121,0.000997719,185.129922253,63.4781057841,0.0,-3200.0,-200.0,-800.0,32.0,0.0,0.0,0.0,0.0
1354211862878195676,5929,1354211862878195676,0.223192884831,0.216530481149,0.222671928057,0.216091248013,0.238668453927,0.48225251446,0.00710163681754,0.000998198,254.065046792,53.4322985111,0.0,-3200.0,-200.0,-800.0,32.0,0.0,0.0,0.0,0.0
1354211862888194443,5930,1354211862888194443,0.228015409976,0.218353178684,0.155111827877,0.218012654033,0.182215766007,0.481352348664,0.010002755943,0.000983217,277.477131203,49.7021851342,0.0,-3200.0,-200.0,-800.0,32.0,0.0,0.0,0.0,0.0
1354211862898231052,5931,1354211862898231052,0.232828933463,0.220356655427,0.206882205486,0.219922457345,0.199716539095,0.480433179901,0.012906476118,0.00100844,278.60535876,57.827962263,0.0,-3200.0,-200.0,-800.0,32.0,0.0,0.0,0.0,0.0
1354211862908180088,5932,1354211862908180088,0.237633265262,0.223245745561,0.394496473229,0.222523084677,0.290289714459,0.479495044459,0.0151101805852,0.000981047,250.799492676,76.0642044689,0.0,-3200.0,-200.0,-800.0,32.0,0.0,0.0,0.0,0.0
1354211862918196979,5933,1354211862918196979,0.242428215706,0.228508051384,0.657169251216,0.2272431021,0.525550644819,0.478537979374,0.0151851136059,0.001010548,132.337600218,99.0986294317,0.0,-3200.0,-200.0,-800.0,32.0,0.0,0.0,0.0,0.0
1354211862928177712,5934,1354211862928177712,0.2472135955,0.236724173289,0.967773663901,0.234869042328,0.823014183602,0.477562022429,0.0123445531718,0.000997209,-43.3908809948,117.519133162,0.0,-3200.0,-200.0,-800.0,32.0,0.0,0.0,0.0,0.0
1354211862938209016,5935,1354211862938209016,0.251989215724,0.246782724132,1.02593870389,0.244743131398,1.00262078104,0.476567212152,0.00724608432599,0.001003182,-156.602719827,120.061247939,0.0,-3200.0,-200.0,-800.0,32.0,0.0,0.0,0.0,0.0
1354211862948212801,5936,1354211862948212801,0.256754887846,0.256216307748,0.850726056849,0.254445321428,0.943324707825,0.475553587819,0.00230956641845,0.001000566,-135.019936519,105.798757859,0.0,-3200.0,-200.0,-800.0,32.0,0.0,0.0,0.0,0.0
1354211862958208038,5937,1354211862958208038,0.261510423724,0.26364417661,0.639170645605,0.262315752624,0.743062084001,0.474521189444,-0.000805328899545,0.000983983,-29.0244471811,89.4538818526,0.0,-3200.0,-200.0,-800.0,32.0,0.0,0.0,0.0,0.0
1354211862968210223,5938,1354211862968210223,0.266255635618,0.268963233752,0.439484062828,0.268062011177,0.531717717097,0.473470057784,-0.00180637555934,0.000999963,87.9979221961,74.0866534759,0.0,-3200.0,-200.0,-800.0,32.0,0.0,0.0,0.0,0.0
1354211862978162531,5939,1354211862978162531,0.270990336196,0.27221777844,0.266126740842,0.271667936128,0.326809857212,0.472400234338,-0.000677599931629,0.000968005,195.659386401,61.6637512492,0.0,-3200.0,-200.0,-800.0,32.0,0.0,0.0,0.0,0.0
1354211862988220947,5940,1354211862988220947,0.27571433854,0.274441510209,0.159684414617,0.27405437656,0.221438954898,0.471311761339,0.00165996198038,0.001015015,241.643933799,53.4402362014,0.0,-3200.0,-200.0,-800.0,32.0,0.0,0.0,0.0,0.0
1354211862998217850,5941,1354211862998217850,0.280427456153,0.276373600007,0.197499296229,0.275990894631,0.193205170812,0.470204681759,0.00443656152248,0.001004033,255.834966423,54.0452601355,0.0,-3200.0,-200.0,-800.0,32.0,0.0,0.0,0.0,0.0
1354211863008214522,5942,1354211863008214522,0.285129502971,0.278556305384,0.291790036804,0.278028570517,0.218215963502,0.469079039304,0.00710093245356,0.001025497,253.650459803,67.9465775286,0.0,-3200.0,-200.0,-800.0,32.0,0.0,0.0,0.0,0.0
1354211863018231382,5943,1354211863018231382,0.289820293364,0.282292143546,0.493086502177,0.28137994966,0.372463264221,0.467934878411,0.00844034370431,0.001019902,192.148826261,89.7008271539,0.0,-3200.0,-200.0,-800.0,32.0,0.0,0.0,0.0,0.0
