%time,field.header.seq,field.header.stamp,field.set_point,field.process_value,field.process_value_dot,field.process_value_filtered,field.process_value_dot_filtered,field.commanded_velocity,field.error,field.time_step,field.command,field.measured_effort,field.friction_compensation,field.position_p,field.position_i,field.position_d,field.position_i_clamp,field.velocity_p,field.velocity_i,field.velocity_d,field.velocity_i_clamp
1354825743466231282,1425,1354825743466231282,4.1918139409e-05,-0.00106375451049,0.0214908301042,-0.00109205678268,0.00540964025008,0.0,0.00113397492209,0.001001604,0.0,-0.537779722073,0.0,-6200.0,-300.0,-600.0,32.0,0.0,0.0,0.0,0.0
1354825743476227286,1426,1354825743476227286,4.1918139409e-05,-0.000979913349634,0.0044230745038,-0.000992005299726,0.00838059350915,0.0,0.00103392343913,0.000999295,0.0,-0.544333497623,0.0,-6200.0,-300.0,-600.0,32.0,0.0,0.0,0.0,0.0
1354825743486228555,1427,1354825743486228555,4.1918139409e-05,-0.00106252410105,0.0214606112668,-0.00105947292218,-0.00823788046204,0.0,0.00110139106159,0.000999583,0.0,-0.665100234027,0.0,-6200.0,-300.0,-600.0,32.0,0.0,0.0,0.0,0.0
1354825743496232138,1428,1354825743496232138,4.1918139409e-05,-0.000979429091896,0.00439788479832,-0.000994638190614,0.00835109253028,0.0,0.00103655633002,0.001017438,0.0,-0.870829693732,0.0,-6200.0,-300.0,-600.0,32.0,0.0,0.0,0.0,0.0
1354825743506197721,1429,1354825743506197721,4.1918139409e-05,-0.000988415241777,-0.0108363446305,-0.000975672845824,-0.000658962754694,0.0,0.00101759098523,0.000999909,0.0,-0.932157580757,0.0,-6200.0,-300.0,-600.0,32.0,0.0,0.0,0.0,0.0
1354825743516200342,1430,1354825743516200342,4.1918139409e-05,-0.00110386704345,-0.023860270554,-0.00105522896288,-0.011583338028,0.0,0.00109714710228,0.000994827,0.0,-0.722668105547,0.0,-6200.0,-300.0,-600.0,32.0,0.0,0.0,0.0,0.0
1354825743526202433,1431,1354825743526202433,4.1918139409e-05,-0.00116551440176,0.00811775380138,-0.00115055325018,-0.00612032234027,0.0,0.00119247138959,0.000970946,0.0,-0.450822159388,0.0,-6200.0,-300.0,-600.0,32.0,0.0,0.0,0.0,0.0
1354825743536180984,1432,1354825743536180984,4.1918139409e-05,-0.00114482681517,0.00770045448234,-0.00116369399484,0.00209934976346,0.0,0.00120561213425,0.00098289,0.0,-0.447564758746,0.0,-6200.0,-300.0,-600.0,32.0,0.0,0.0,0.0,0.0
1354825743546181082,1433,1354825743546181082,4.1918139409e-05,-0.00114364540239,0.00768643562088,-0.0011531278699,2.49426559769e-05,0.0,0.00119504600931,0.000982376,0.0,-0.40536294136,0.0,-6200.0,-300.0,-600.0,32.0,0.0,0.0,0.0,0.0
1354825743556219244,1434,1354825743556219244,4.1918139409e-05,-0.00113061843698,-0.00794642513037,-0.00112360914793,0.0012611944631,0.0,0.00116552728734,0.001018818,0.0,-0.25772405487,0.0,-6200.0,-300.0,-600.0,32.0,0.0,0.0,0.0,0.0
1354825743566223346,1435,1354825743566223346,4.1918139409e-05,-0.00110770448164,-0.0237984233669,-0.00110242544461,0.00237954704261,0.0,0.00114434358402,0.001024827,0.0,-0.580442950026,0.0,-6200.0,-300.0,-600.0,32.0,0.0,0.0,0.0,0.0
1354825743576196834,1436,1354825743576196834,4.1918139409e-05,-0.00105768668779,0.02132733018,-0.00107632632236,0.00480526334832,0.0,0.00111824446177,0.000999227,0.0,-0.592279546483,0.0,-6200.0,-300.0,-600.0,32.0,0.0,0.0,0.0,0.0
1354825743586196582,1437,1354825743586196582,4.1918139409e-05,-0.00102894191129,-0.00999698894489,-0.00104591554097,0.00276671362809,0.0,0.00108783368038,0.000998823,0.0,-0.450517168498,0.0,-6200.0,-300.0,-600.0,32.0,0.0,0.0,0.0,0.0
1354825743596242006,1438,1354825743596242006,4.1918139409e-05,-0.00106933377263,-0.0245503331493,-0.00103475554077,-0.00402955038483,0.0,0.00107667368018,0.00100531,0.0,-0.524679092103,0.0,-6200.0,-300.0,-600.0,32.0,0.0,0.0,0.0,0.0
1354825743606197511,1439,1354825743606197511,4.1918139409e-05,-0.00109835745414,-0.00858762989632,-0.00109339707172,-0.00290164166386,0.0,0.00113531521113,0.000999263,0.0,-0.758692079225,0.0,-6200.0,-300.0,-600.0,32.0,0.0,0.0,0.0,0.0
1354825743616202447,1440,1354825743616202447,4.1918139409e-05,-0.0011017783144,0.00686018100939,-0.00111589795959,-0.00032652663751,0.0,0.001157816099,0.001001445,0.0,-0.767455891369,0.0,-6200.0,-300.0,-600.0,32.0,0.0,0.0,0.0,0.0
1354825743626187859,1441,1354825743626187859,4.1918139409e-05,-0.00120062046536,0.0088557842623,-0.00120637522209,-0.0098755097046,0.0,0.0012482933615,0.000999868,0.0,-0.76955679696,0.0,-6200.0,-300.0,-600.0,32.0,0.0,0.0,0.0,0.0
1354825743636166039,1442,1354825743636166039,4.1918139409e-05,-0.00123081500955,-0.00590071853263,-0.00122200159929,-0.00303338433356,0.0,0.0012639197387,0.000981815,0.0,-0.626437677077,0.0,-6200.0,-300.0,-600.0,32.0,0.0,0.0,0.0,0.0
1354825743646211184,1443,1354825743646211184,4.1918139409e-05,-0.00115993442222,0.0080593147976,-0.00115712636774,0.00698832914067,0.0,0.00119904450714,0.000982246,0.0,-0.652362687969,0.0,-6200.0,-300.0,-600.0,32.0,0.0,0.0,0.0,0.0
1354825743656197917,1444,1354825743656197917,4.1918139409e-05,-0.00105846355194,0.00600895954672,-0.00108951515495,0.0101013771254,0.0,0.00113143329436,0.00100089,0.0,-0.720211183532,0.0,-6200.0,-300.0,-600.0,32.0,0.0,0.0,0.0,0.0
1354825743666203287,1445,1354825743666203287,4.1918139409e-05,-0.00113910678878,-0.0231243335157,-0.00112591057302,-0.00800899350876,0.0,0.00116782871243,0.001008345,0.0,-0.782936009426,0.0,-6200.0,-300.0,-600.0,32.0,0.0,0.0,0.0,0.0
1354825743676196679,1446,1354825743676196679,4.1918139409e-05,-0.001123342409,0.0226643303705,-0.0011385731355,0.00159297743773,0.0,0.0011804912749,0.001001396,0.0,-0.858585922092,0.0,-6200.0,-300.0,-600.0,32.0,0.0,0.0,0.0,0.0
1354825743686197989,1447,1354825743686197989,4.1918139409e-05,-0.00108409680366,0.00650891515509,-0.00109741498526,0.00383662223214,0.0,0.00113933312467,0.00100043,0.0,-0.84342138689,0.0,-6200.0,-300.0,-600.0,32.0,0.0,0.0,0.0,0.0
1354825743696200315,1448,1354825743696200315,4.1918139409e-05,-0.00112262198037,0.00728936405882,-0.00111263466521,-0.00388872811461,0.0,0.00115455280462,0.001003622,0.0,-0.695537279114,0.0,-6200.0,-300.0,-600.0,32.0,0.0,0.0,0.0,0.0
1354825743706203931,1449,1354825743706203931,4.1918139409e-05,-0.00111505162589,0.00718029388262,-0.00108890318658,0.000519181235709,0.0,0.00113082132599,0.000999627,0.0,-0.572726037545,0.0,-6200.0,-300.0,-600.0,32.0,0.0,0.0,0.0,0.0
1354825743716187953,1450,1354825743716187953,4.1918139409e-05,-0.00111795459646,-0.00814240372209,-0.00112001093746,-0.000191878092688,0.0,0.00116192907687,0.000998587,0.0,-0.610765605258,0.0,-6200.0,-300.0,-600.0,32.0,0.0,0.0,0.0,0.0
1354825743726195341,1451,1354825743726195341,4.1918139409e-05,-0.00105635183772,0.00597820284128,-0.00107438487351,0.00634685264603,0.0,0.00111630301292,0.000989532,0.0,-0.573192735147,0.0,-6200.0,-300.0,-600.0,32.0,0.0,0.0,0.0,0.0
1354825743736182465,1452,1354825743736182465,4.1918139409e-05,-0.001071290675,0.00630817258102,-0.00107159400548,-0.00159484177843,0.0,0.00111351214489,0.000984667,0.0,-0.570527312586,0.0,-6200.0,-300.0,-600.0,32.0,0.0,0.0,0.0,0.0
1354825743746196765,1453,1354825743746196765,4.1918139409e-05,-0.00114043679416,-0.0229837910275,-0.00111840924576,-0.00720634580635,0.0,0.00116032738517,0.000999563,0.0,-0.652515861993,0.0,-6200.0,-300.0,-600.0,32.0,0.0,0.0,0.0,0.0
1354825743756201164,1454,1354825743756201164,4.1918139409e-05,-0.00109191495379,-0.023980383899,-0.00106140193167,0.00489906831892,0.0,0.00110332007108,0.001004266,0.0,-0.677496657651,0.0,-6200.0,-300.0,-600.0,32.0,0.0,0.0,0.0,0.0
1354825743766201941,1455,1354825743766201941,4.1918139409e-05,-0.00108832563959,0.00669337830656,-0.00109552602584,0.000403255521906,0.0,0.00113744416525,0.001006529,0.0,-0.666661201142,0.0,-6200.0,-300.0,-600.0,32.0,0.0,0.0,0.0,0.0
1354825743776198173,1456,1354825743776198173,4.1918139409e-05,-0.00111047869816,0.0071185362029,-0.00111562883316,-0.00207256627451,0.0,0.00115754697257,0.00100076,0.0,-0.578854740765,0.0,-6200.0,-300.0,-600.0,32.0,0.0,0.0,0.0,0.0
1354825743786195671,1457,1354825743786195671,4.1918139409e-05,-0.00112695749515,0.0228161369226,-0.00113258218284,-0.00164575691626,0.0,0.00117450032225,0.000998154,0.0,-0.584960665672,0.0,-6200.0,-300.0,-600.0,32.0,0.0,0.0,0.0,0.0
1354825743796207172,1458,1354825743796207172,4.1918139409e-05,-0.00112861540551,-0.00790369997023,-0.00112797955015,-0.000159112696272,0.0,0.00116989768956,0.001004571,0.0,-0.703413789278,0.0,-6200.0,-300.0,-600.0,32.0,0.0,0.0,0.0,0.0
1354825743806195993,1459,1354825743806195993,4.1918139409e-05,-0.0011254630999,0.022778190278,-0.00115327254683,0.000410750141764,0.0,0.00119519068624,0.000998882,0.0,-0.683398932263,0.0,-6200.0,-300.0,-600.0,32.0,0.0,0.0,0.0,0.0
1354825743816178198,1460,1354825743816178198,4.1918139409e-05,-0.00116972542733,-0.0224901352292,-0.00116157040696,-0.0040808196662,0.0,0.00120348854637,0.000981254,0.0,-0.848650281348,0.0,-6200.0,-300.0,-600.0,32.0,0.0,0.0,0.0,0.0
1354825743826197554,1461,1354825743826197554,4.1918139409e-05,-0.00110837803364,0.022358598353,-0.00113207046895,0.00623580590021,0.0,0.00117398860836,0.00100376,0.0,-0.8319004623,0.0,-6200.0,-300.0,-600.0,32.0,0.0,0.0,0.0,0.0
1354825743836203213,1462,1354825743836203213,4.1918139409e-05,-0.00107150475388,0.00622810950466,-0.00107495178984,0.00371517224397,0.0,0.00111686992925,0.001006059,0.0,-0.868691672704,0.0,-6200.0,-300.0,-600.0,32.0,0.0,0.0,0.0,0.0
1354825743846198243,1463,1354825743846198243,4.1918139409e-05,-0.00104156722756,-0.0097573721565,-0.00106187662271,0.00307731363194,0.0,0.00110379476212,0.000998422,0.0,-0.71404916517,0.0,-6200.0,-300.0,-600.0,32.0,0.0,0.0,0.0,0.0
1354825743856201181,1464,1354825743856201181,4.1918139409e-05,-0.00109157252238,-0.0394846322463,-0.00104526165886,-0.00508797017466,0.0,0.00108717979827,0.001002083,0.0,-0.514838116728,0.0,-6200.0,-300.0,-600.0,32.0,0.0,0.0,0.0,0.0
1354825743866205080,1465,1354825743866205080,4.1918139409e-05,-0.00111854307281,-0.0236008572231,-0.00110156498808,-0.00257971836801,0.0,0.00114348312749,0.001007359,0.0,-0.565302524258,0.0,-6200.0,-300.0,-600.0,32.0,0.0,0.0,0.0,0.0
1354825743876199487,1466,1354825743876199487,4.1918139409e-05,-0.00111924409549,0.00715953319197,-0.00114055702526,-0.000117178341799,0.0,0.00118247516466,0.001001393,0.0,-0.684699832923,0.0,-6200.0,-300.0,-600.0,32.0,0.0,0.0,0.0,0.0
1354825743886203285,1467,1354825743886203285,4.1918139409e-05,-0.00110585145332,0.0222828539515,-0.00113616304087,0.00125244783461,0.0,0.00117808118028,0.00099861,0.0,-0.811530920649,0.0,-6200.0,-300.0,-600.0,32.0,0.0,0.0,0.0,0.0
1354825743896202906,1468,1354825743896202906,4.1918139409e-05,-0.00111380551204,0.0224536593789,-0.00110045778381,-0.000856155437651,0.0,0.00114237592322,0.001003654,0.0,-0.810500760325,0.0,-6200.0,-300.0,-600.0,32.0,0.0,0.0,0.0,0.0
1354825743906196979,1469,1354825743906196979,4.1918139409e-05,-0.00117118787439,0.00827201476863,-0.0011753155062,-0.00578842394771,0.0,0.00121723364561,0.000999212,0.0,-0.847715215289,0.0,-6200.0,-300.0,-600.0,32.0,0.0,0.0,0.0,0.0
1354825743916203836,1470,1354825743916203836,4.1918139409e-05,-0.00111112451932,-0.00831951233957,-0.00111912672607,0.00605610958919,0.0,0.00116104486548,0.001006157,0.0,-0.802281946946,0.0,-6200.0,-300.0,-600.0,32.0,0.0,0.0,0.0,0.0
1354825743926184664,1471,1354825743926184664,4.1918139409e-05,-0.00109360201646,0.00669868177117,-0.00108526349553,0.00179897759683,0.0,0.00112718163494,0.000960889,0.0,-0.761936934529,0.0,-6200.0,-300.0,-600.0,32.0,0.0,0.0,0.0,0.0
1354825743936205508,1472,1354825743936205508,4.1918139409e-05,-0.00104889928541,-0.00956227550579,-0.00105741547135,0.00445999427092,0.0,0.00109933361076,0.001009926,0.0,-0.876384236269,0.0,-6200.0,-300.0,-600.0,32.0,0.0,0.0,0.0,0.0
1354825743946201382,1473,1354825743946201382,4.1918139409e-05,-0.00106419397254,0.00607789335557,-0.00108289530652,-0.0014515728628,0.0,0.00112481344593,0.001041547,0.0,-1.0133955841,0.0,-6200.0,-300.0,-600.0,32.0,0.0,0.0,0.0,0.0
1354825743956201081,1474,1354825743956201081,4.1918139409e-05,-0.00107806558934,-0.00898708275509,-0.00107537838222,-0.00147631857036,0.0,0.00111729652163,0.00100094,0.0,-0.978439026069,0.0,-6200.0,-300.0,-600.0,32.0,0.0,0.0,0.0,0.0
1354825743966202505,1475,1354825743966202505,4.1918139409e-05,-0.00118799237113,-0.0221471607288,-0.00115517019948,-0.0109672889777,0.0,0.00119708833889,0.00100263,0.0,-0.793571757223,0.0,-6200.0,-300.0,-600.0,32.0,0.0,0.0,0.0,0.0
1354825743976205070,1476,1354825743976205070,4.1918139409e-05,-0.00113923914616,-0.0231392236294,-0.00112625020838,0.00485713719923,0.0,0.00116816834779,0.001002196,0.0,-0.790931004521,0.0,-6200.0,-300.0,-600.0,32.0,0.0,0.0,0.0,0.0
1354825743986197747,1477,1354825743986197747,4.1918139409e-05,-0.00120008465745,-0.00654438050505,-0.00116812305302,-0.00604076116847,0.0,0.00121004119243,0.00099718,0.0,-0.896446563665,0.0,-6200.0,-300.0,-600.0,32.0,0.0,0.0,0.0,0.0
1354825743996200764,1478,1354825743996200764,4.1918139409e-05,-0.00124500407732,-0.00562050338189,-0.00123677721561,-0.00455595559742,0.0,0.00127869535502,0.001001141,0.0,-0.809419548137,0.0,-6200.0,-300.0,-600.0,32.0,0.0,0.0,0.0,0.0
1354825744006197593,1479,1354825744006197593,4.1918139409e-05,-0.00129463520725,-0.0199681463006,-0.00128495192064,-0.00506921139524,0.0,0.00132687006005,0.000999315,0.0,-0.990507779927,0.0,-6200.0,-300.0,-600.0,32.0,0.0,0.0,0.0,0.0
1354825744016198553,1480,1354825744016198553,4.1918139409e-05,-0.00126795308155,0.0102348885244,-0.00127625359952,0.00274299841433,0.0,0.00131817173893,0.001001193,0.0,-0.92636676071,0.0,-6200.0,-300.0,-600.0,32.0,0.0,0.0,0.0,0.0
1354825744026186258,1481,1354825744026186258,4.1918139409e-05,-0.00127431443383,-0.00502880323055,-0.00127663248034,-0.000537063204989,0.0,0.00131855061975,0.000991192,0.0,-1.04775745499,0.0,-6200.0,-300.0,-600.0,32.0,0.0,0.0,0.0,0.0
1354825744036202933,1482,1354825744036202933,4.1918139409e-05,-0.0011716478448,-0.00709346325058,-0.00116956614861,0.0102356444365,0.0,0.00121148428802,0.001006383,0.0,-0.928138976997,0.0,-6200.0,-300.0,-600.0,32.0,0.0,0.0,0.0,0.0
1354825744046198711,1483,1354825744046198711,4.1918139409e-05,-0.00118869043189,0.0240201647099,-0.00121604906941,-0.00184785479442,0.0,0.00125796720882,0.001000313,0.0,-0.93834631301,0.0,-6200.0,-300.0,-600.0,32.0,0.0,0.0,0.0,0.0
1354825744056201332,1484,1354825744056201332,4.1918139409e-05,-0.00125145686336,-0.0208222715797,-0.00121181170249,-0.0062953370626,0.0,0.0012537298419,0.001003206,0.0,-0.881540940039,0.0,-6200.0,-300.0,-600.0,32.0,0.0,0.0,0.0,0.0
1354825744066210600,1485,1354825744066210600,4.1918139409e-05,-0.00119180744838,0.00873582251893,-0.00118767287698,0.00580593292468,0.0,0.00122959101639,0.001007355,0.0,-0.858554094352,0.0,-6200.0,-300.0,-600.0,32.0,0.0,0.0,0.0,0.0
1354825744076213726,1486,1354825744076213726,4.1918139409e-05,-0.00116772934674,-0.0071270247309,-0.00116250786293,0.00241939986178,0.0,0.00120442600234,0.001017311,0.0,-0.882432807457,0.0,-6200.0,-300.0,-600.0,32.0,0.0,0.0,0.0,0.0
1354825744086198472,1487,1354825744086198472,4.1918139409e-05,-0.0011660885944,0.008202938689,-0.00115477253316,0.000276454486654,0.0,0.00119669067257,0.00100152,0.0,-0.804402329907,0.0,-6200.0,-300.0,-600.0,32.0,0.0,0.0,0.0,0.0
1354825744096202586,1488,1354825744096202586,4.1918139409e-05,-0.0011167998338,0.00722219779635,-0.00113158730333,0.00484778572605,0.0,0.00117350544274,0.001004986,0.0,-0.716590855749,0.0,-6200.0,-300.0,-600.0,32.0,0.0,0.0,0.0,0.0
1354825744106196215,1489,1354825744106196215,4.1918139409e-05,-0.00110531028511,-0.0083883045855,-0.00110688916425,0.00117334359467,0.0,0.00114880730366,0.000999565,0.0,-0.584923311529,0.0,-6200.0,-300.0,-600.0,32.0,0.0,0.0,0.0,0.0
1354825744116195897,1490,1354825744116195897,4.1918139409e-05,-0.00104523470134,0.00577598854992,-0.00105387541853,0.00600312384222,0.0,0.00109579355794,0.001000275,0.0,-0.549694041616,0.0,-6200.0,-300.0,-600.0,32.0,0.0,0.0,0.0,0.0
1354825744126177725,1491,1354825744126177725,4.1918139409e-05,-0.0011276473551,0.0228332021766,-0.00114323628452,-0.00826243340724,0.0,0.00118515442393,0.000982722,0.0,-0.700599401787,0.0,-6200.0,-300.0,-600.0,32.0,0.0,0.0,0.0,0.0
1354825744136202612,1492,1354825744136202612,4.1918139409e-05,-0.00124511940703,-0.0362958631621,-0.00120507637788,-0.011725139084,0.0,0.00124699451729,0.001004324,0.0,-0.713471932555,0.0,-6200.0,-300.0,-600.0,32.0,0.0,0.0,0.0,0.0
1354825744146202835,1493,1354825744146202835,4.1918139409e-05,-0.00117134489935,0.0236859468985,-0.00119164046322,0.00738996679401,0.0,0.00123355860263,0.001005518,0.0,-0.670565339775,0.0,-6200.0,-300.0,-600.0,32.0,0.0,0.0,0.0,0.0
1354825744156205134,1494,1354825744156205134,4.1918139409e-05,-0.00116819710713,0.00825041218738,-0.00115366308831,0.000417751741345,0.0,0.00119558122772,0.001002035,0.0,-0.724346364461,0.0,-6200.0,-300.0,-600.0,32.0,0.0,0.0,0.0,0.0
1354825744166198453,1495,1354825744166198453,4.1918139409e-05,-0.00117299149532,0.0236936100399,-0.00121212728897,-0.000422243896774,0.0,0.00125404542838,0.000999512,0.0,-0.737765626399,0.0,-6200.0,-300.0,-600.0,32.0,0.0,0.0,0.0,0.0
1354825744176197133,1496,1354825744176197133,4.1918139409e-05,-0.00119376909607,0.00875024808497,-0.00119545312402,-0.00209402724979,0.0,0.00123737126343,0.001000084,0.0,-0.692865438264,0.0,-6200.0,-300.0,-600.0,32.0,0.0,0.0,0.0,0.0
1354825744186196693,1497,1354825744186196693,4.1918139409e-05,-0.00117258250623,-0.00704717232712,-0.00116451918647,0.00202543941631,0.0,0.00120643732587,0.00100049,0.0,-0.537039220635,0.0,-6200.0,-300.0,-600.0,32.0,0.0,0.0,0.0,0.0
1354825744196199820,1498,1354825744196199820,4.1918139409e-05,-0.00116725858921,-0.00715010680297,-0.00116822690197,0.000476795675928,0.0,0.00121014504138,0.00100276,0.0,-0.581392944092,0.0,-6200.0,-300.0,-600.0,32.0,0.0,0.0,0.0,0.0
1354825744206196011,1499,1354825744206196011,4.1918139409e-05,-0.00116543664183,-0.00719164876517,-0.00116335947043,0.00019965227074,0.0,0.00120527760984,0.000998673,0.0,-0.485414209573,0.0,-6200.0,-300.0,-600.0,32.0,0.0,0.0,0.0,0.0
1354825744216192862,1500,1354825744216192862,4.1918139409e-05,-0.0011823690906,0.00793250122016,-0.00119234439057,0.00206756054282,0.0,0.00123426252998,0.001004984,0.0,-0.464538229265,0.0,-6200.0,-300.0,-600.0,32.0,0.0,0.0,0.0,0.0
1354825744226178687,1501,1354825744226178687,4.1918139409e-05,-0.00117746335382,-0.00745493141677,-0.00118204885791,7.62028003408e-05,0.0,0.00122396699732,0.00097844,0.0,-0.534593333126,0.0,-6200.0,-300.0,-600.0,32.0,0.0,0.0,0.0,0.0
1354825744236201804,1502,1354825744236201804,4.1918139409e-05,-0.00110513987959,-0.00883171587646,-0.00109743895596,0.00673453720581,0.0,0.00113935709537,0.001002609,0.0,-0.656400846337,0.0,-6200.0,-300.0,-600.0,32.0,0.0,0.0,0.0,0.0
1354825744246201602,1503,1354825744246201602,4.1918139409e-05,-0.00102573929813,0.00500759961584,-0.00106411166181,0.0077136408606,0.0,0.00110602980121,0.000999688,0.0,-0.794937670803,0.0,-6200.0,-300.0,-600.0,32.0,0.0,0.0,0.0,0.0
1354825744256195923,1504,1354825744256195923,4.1918139409e-05,-0.00104776476845,0.00549362327565,-0.00104076006937,-0.00245217252209,0.0,0.00108267820878,0.001000982,0.0,-0.903703929243,0.0,-6200.0,-300.0,-600.0,32.0,0.0,0.0,0.0,0.0
1354825744266202643,1505,1354825744266202643,4.1918139409e-05,-0.00106115446142,0.00586514257383,-0.00106414315475,-0.00190407159712,0.0,0.00110606129416,0.001004419,0.0,-1.03572832043,0.0,-6200.0,-300.0,-600.0,32.0,0.0,0.0,0.0,0.0
1354825744276207369,1506,1354825744276207369,4.1918139409e-05,-0.00112162427623,-0.0390107023109,-0.00108505262594,-0.00616750697893,0.0,0.00112697076535,0.001038685,0.0,-1.09270003054,0.0,-6200.0,-300.0,-600.0,32.0,0.0,0.0,0.0,0.0
1354825744286210005,1507,1354825744286210005,4.1918139409e-05,-0.00116549758637,0.00802753117175,-0.00116977603342,-0.00450641278929,0.0,0.00121169417283,0.000997533,0.0,-1.04554825123,0.0,-6200.0,-300.0,-600.0,32.0,0.0,0.0,0.0,0.0
1354825744296199694,1508,1354825744296199694,4.1918139409e-05,-0.00111913652402,-0.0236360570927,-0.00111794274499,0.00454074291484,0.0,0.0011598608844,0.000998278,0.0,-1.14885195534,0.0,-6200.0,-300.0,-600.0,32.0,0.0,0.0,0.0,0.0
1354825744306166816,1509,1354825744306166816,4.1918139409e-05,-0.00120844541242,-0.00643929012849,-0.00118299590613,-0.00900321896004,0.0,0.00122491404554,0.001009973,0.0,-1.19269320997,0.0,-6200.0,-300.0,-600.0,32.0,0.0,0.0,0.0,0.0
1354825744316154224,1510,1354825744316154224,4.1918139409e-05,-0.00119480240047,0.0240495711278,-0.00121911768764,0.00131666915416,0.0,0.00126103582705,0.001000396,0.0,-1.30580433464,0.0,-6200.0,-300.0,-600.0,32.0,0.0,0.0,0.0,0.0
1354825744326126075,1511,1354825744326126075,4.1918139409e-05,-0.00115681159544,0.00791467166355,-0.00117299171339,0.00380277825169,0.0,0.0012149098528,0.000999095,0.0,-1.34854474884,0.0,-6200.0,-300.0,-600.0,32.0,0.0,0.0,0.0,0.0
1354825744336157943,1512,1354825744336157943,4.1918139409e-05,-0.00111234508656,-0.00834291827076,-0.001116929239,0.00439124693346,0.0,0.00115884737841,0.001000053,0.0,-1.31622105431,0.0,-6200.0,-300.0,-600.0,32.0,0.0,0.0,0.0,0.0
1354825744346153363,1513,1354825744346153363,4.1918139409e-05,-0.00110359055771,0.00687096676867,-0.00110527762345,0.000793066868981,0.0,0.00114719576286,0.000999714,0.0,-1.32529752976,0.0,-6200.0,-300.0,-600.0,32.0,0.0,0.0,0.0,0.0
1354825744356144939,1514,1354825744356144939,4.1918139409e-05,-0.00117576872594,0.00833762856207,-0.00118672553725,-0.00723470499083,0.0,0.00122864367665,0.000999224,0.0,-1.34607325852,0.0,-6200.0,-300.0,-600.0,32.0,0.0,0.0,0.0,0.0
1354825744366153103,1515,1354825744366153103,4.1918139409e-05,-0.00104570088666,0.00571666877531,-0.00106986629534,0.0129717673255,0.0,0.00111178443475,0.001002034,0.0,-1.42846734942,0.0,-6200.0,-300.0,-600.0,32.0,0.0,0.0,0.0,0.0
1354825744376152511,1516,1354825744376152511,4.1918139409e-05,-0.00106110365631,0.00603658948559,-0.00107353752159,-0.00158449941293,0.0,0.001115455661,0.000999873,0.0,-1.56521369542,0.0,-6200.0,-300.0,-600.0,32.0,0.0,0.0,0.0,0.0
1354825744386153049,1517,1354825744386153049,4.1918139409e-05,-0.00111791620699,-0.0235644885348,-0.0010947506631,-0.00568653665641,0.0,0.00113666880251,0.001000332,0.0,-1.50173294855,0.0,-6200.0,-300.0,-600.0,32.0,0.0,0.0,0.0,0.0
1354825744396151681,1518,1354825744396151681,4.1918139409e-05,-0.00115961512655,0.0080250755624,-0.00117297816223,-0.0041773419831,0.0,0.00121489630163,0.001000036,0.0,-1.51517066109,0.0,-6200.0,-300.0,-600.0,32.0,0.0,0.0,0.0,0.0
1354825744406145334,1519,1354825744406145334,4.1918139409e-05,-0.00107293528674,-0.0090979407915,-0.00109205759382,0.00867506665584,0.0,0.00113397573323,0.000990598,0.0,-1.31039931074,0.0,-6200.0,-300.0,-600.0,32.0,0.0,0.0,0.0,0.0
1354825744416186121,1520,1354825744416186121,4.1918139409e-05,-0.00108356726766,0.00651936562398,-0.00109671716783,-0.00109641672634,0.0,0.00113863530723,0.001000184,0.0,-1.36599001639,0.0,-6200.0,-300.0,-600.0,32.0,0.0,0.0,0.0,0.0
1354825744426195327,1521,1354825744426195327,4.1918139409e-05,-0.00105235873431,-0.00951988895407,-0.00105742452742,0.00326667102113,0.0,0.00109934266683,0.001013971,0.0,-1.4129990963,0.0,-6200.0,-300.0,-600.0,32.0,0.0,0.0,0.0,0.0
1354825744436200127,1522,1354825744436200127,4.1918139409e-05,-0.00105467052405,0.00590633754572,-0.00106386482657,-0.000347214325393,0.0,0.00110578296598,0.000999012,0.0,-1.48581719084,0.0,-6200.0,-300.0,-600.0,32.0,0.0,0.0,0.0,0.0
1354825744446196392,1523,1354825744446196392,4.1918139409e-05,-0.00108388771025,0.00647162033313,-0.00109717693983,-0.00274482350902,0.0,0.00113909507924,0.000998814,0.0,-1.64800032406,0.0,-6200.0,-300.0,-600.0,32.0,0.0,0.0,0.0,0.0
1354825744456195657,1524,1354825744456195657,4.1918139409e-05,-0.00116448979278,-0.00724099096445,-0.00114028566882,-0.00811273730233,0.0,0.00118220380823,0.000999814,0.0,-1.50355150878,0.0,-6200.0,-300.0,-600.0,32.0,0.0,0.0,0.0,0.0
1354825744466226963,1525,1354825744466226963,4.1918139409e-05,-0.00114829105219,0.00782741025947,-0.00113658396619,0.00156403361691,0.0,0.0011785021056,0.001027227,0.0,-1.2219256965,0.0,-6200.0,-300.0,-600.0,32.0,0.0,0.0,0.0,0.0
1354825744476195464,1526,1354825744476195464,4.1918139409e-05,-0.00120121122792,0.00888921746744,-0.00120033864985,-0.00519920854676,0.0,0.00124225678926,0.000997375,0.0,-1.18310237024,0.0,-6200.0,-300.0,-600.0,32.0,0.0,0.0,0.0,0.0
1354825744486196168,1527,1354825744486196168,4.1918139409e-05,-0.00123903085963,0.00969561727925,-0.00124929235736,-0.00399017907461,0.0,0.00129121049677,0.000998235,0.0,-1.10761667843,0.0,-6200.0,-300.0,-600.0,32.0,0.0,0.0,0.0,0.0
1354825744496196600,1528,1354825744496196600,4.1918139409e-05,-0.00127183422815,0.0103233727492,-0.00128980369242,-0.00306307861556,0.0,0.00133172183183,0.001000906,0.0,-1.12865340001,0.0,-6200.0,-300.0,-600.0,32.0,0.0,0.0,0.0,0.0
1354825744506196924,1529,1354825744506196924,4.1918139409e-05,-0.00128774876623,0.0106426565887,-0.00129389776355,-0.00158020072426,0.0,0.00133581590296,0.001000459,0.0,-0.960336791993,0.0,-6200.0,-300.0,-600.0,32.0,0.0,0.0,0.0,0.0
1354825744516214631,1530,1354825744516214631,4.1918139409e-05,-0.00119516684998,-0.00660313994796,-0.00118402653125,0.00925750237433,0.0,0.00122594467066,0.001004937,0.0,-0.677513100162,0.0,-6200.0,-300.0,-600.0,32.0,0.0,0.0,0.0,0.0
1354825744526197121,1531,1354825744526197121,4.1918139409e-05,-0.00123106365576,-0.0212522428672,-0.00121251340478,-0.00354317285691,0.0,0.00125443154419,0.001018573,0.0,-0.778078798502,0.0,-6200.0,-300.0,-600.0,32.0,0.0,0.0,0.0,0.0
1354825744536195910,1532,1354825744536195910,4.1918139409e-05,-0.0012487819327,-0.0208837473907,-0.00121855315018,-0.00183835155795,0.0,0.00126047128959,0.00099977,0.0,-0.750217237323,0.0,-6200.0,-300.0,-600.0,32.0,0.0,0.0,0.0,0.0
1354825744546197402,1533,1354825744546197402,4.1918139409e-05,-0.00125687639377,0.0253794460798,-0.00125237338285,-0.000687266535719,0.0,0.00129429152226,0.000999816,0.0,-0.976808133936,0.0,-6200.0,-300.0,-600.0,32.0,0.0,0.0,0.0,0.0
1354825744556195451,1534,1354825744556195451,4.1918139409e-05,-0.00126351693788,-0.00523038339371,-0.0012683942559,-0.000684845998196,0.0,0.00131031239531,0.000999545,0.0,-1.05363765273,0.0,-6200.0,-300.0,-600.0,32.0,0.0,0.0,0.0,0.0
1354825744566197573,1535,1354825744566197573,4.1918139409e-05,-0.00124294299849,-0.0210144159038,-0.00123426146963,0.00205063184673,0.0,0.00127617960904,0.000998397,0.0,-1.03815805754,0.0,-6200.0,-300.0,-600.0,32.0,0.0,0.0,0.0,0.0
1354825744576198895,1536,1354825744576198895,4.1918139409e-05,-0.00125004682413,-0.00545487195674,-0.00124189914602,-0.000888021062914,0.0,0.00128381728543,0.001003494,0.0,-1.10380860765,0.0,-6200.0,-300.0,-600.0,32.0,0.0,0.0,0.0,0.0
1354825744586195671,1537,1354825744586195671,4.1918139409e-05,-0.00126737438954,0.010260089933,-0.00129780397212,-0.00171367848344,0.0,0.00133972211153,0.000995987,0.0,-1.04924676037,0.0,-6200.0,-300.0,-600.0,32.0,0.0,0.0,0.0,0.0
1354825744596214163,1538,1354825744596214163,4.1918139409e-05,-0.00125716742284,-0.00531329223437,-0.00126533352696,0.000987049839553,0.0,0.00130725166637,0.000980495,0.0,-0.777012478083,0.0,-6200.0,-300.0,-600.0,32.0,0.0,0.0,0.0,0.0
1354825744606204112,1539,1354825744606204112,4.1918139409e-05,-0.00122343182357,0.00936302548293,-0.00123307945257,0.00349046997773,0.0,0.00127499759197,0.001000523,0.0,-0.823261278281,0.0,-6200.0,-300.0,-600.0,32.0,0.0,0.0,0.0,0.0
1354825744616199767,1540,1354825744616199767,4.1918139409e-05,-0.00116802900399,0.0082246721473,-0.00116595377561,0.0055462702399,0.0,0.00120787191502,0.000999254,0.0,-1.00320858314,0.0,-6200.0,-300.0,-600.0,32.0,0.0,0.0,0.0,0.0
1354825744626180104,1541,1354825744626180104,4.1918139409e-05,-0.00112442437482,0.0227080605823,-0.00113592677343,0.00444153802345,0.0,0.00117784491284,0.000995912,0.0,-1.0674952259,0.0,-6200.0,-300.0,-600.0,32.0,0.0,0.0,0.0,0.0
1354825744636185429,1542,1354825744636185429,4.1918139409e-05,-0.00107364227449,-0.00906766538403,-0.00107688247828,0.00507059542332,0.0,0.00111880061769,0.001000362,0.0,-1.04693854297,0.0,-6200.0,-300.0,-600.0,32.0,0.0,0.0,0.0,0.0
1354825744646197898,1543,1354825744646197898,4.1918139409e-05,-0.00103421287448,-0.00987235718342,-0.00102972677609,0.00393328085549,0.0,0.0010716449155,0.000998297,0.0,-0.959445408153,0.0,-6200.0,-300.0,-600.0,32.0,0.0,0.0,0.0,0.0
1354825744656198029,1544,1354825744656198029,4.1918139409e-05,-0.00108940243119,0.00665359700124,-0.00109648121664,-0.00553712304574,0.0,0.00113839935605,0.00100166,0.0,-0.786858499579,0.0,-6200.0,-300.0,-600.0,32.0,0.0,0.0,0.0,0.0
1354825744666201906,1545,1354825744666201906,4.1918139409e-05,-0.00121301381634,-0.00622158802224,-0.00117528723763,-0.012267386601,0.0,0.00121720537704,0.001002259,0.0,-0.752700098238,0.0,-6200.0,-300.0,-600.0,32.0,0.0,0.0,0.0,0.0
1354825744676196479,1546,1354825744676196479,4.1918139409e-05,-0.00127405979015,-0.0357414670327,-0.00123230397234,-0.0060571458201,0.0,0.00127422211175,0.001000011,0.0,-0.907721646708,0.0,-6200.0,-300.0,-600.0,32.0,0.0,0.0,0.0,0.0
1354825744686194414,1547,1354825744686194414,4.1918139409e-05,-0.00124574573096,0.00980763751612,-0.00125328136854,0.00286018834687,0.0,0.00129519950795,0.000998475,0.0,-1.06797081776,0.0,-6200.0,-300.0,-600.0,32.0,0.0,0.0,0.0,0.0
1354825744696183705,1548,1354825744696183705,4.1918139409e-05,-0.00122766672212,0.0247888824518,-0.00124372190244,0.00201289527438,0.0,0.00128564004185,0.000981342,0.0,-1.23667507141,0.0,-6200.0,-300.0,-600.0,32.0,0.0,0.0,0.0,0.0
1354825744706198113,1549,1354825744706198113,4.1918139409e-05,-0.00124562922001,-0.0209834331284,-0.00120264832259,-0.00167436755965,0.0,0.001244566462,0.001001311,0.0,-1.18492565717,0.0,-6200.0,-300.0,-600.0,32.0,0.0,0.0,0.0,0.0
1354825744716202586,1550,1354825744716202586,4.1918139409e-05,-0.00127816247138,0.0104537286822,-0.00127758136171,-0.00345893926898,0.0,0.00131949950112,0.000990635,0.0,-1.21804529363,0.0,-6200.0,-300.0,-600.0,32.0,0.0,0.0,0.0,0.0
1354825744726181482,1551,1354825744726181482,4.1918139409e-05,-0.00123905960338,0.0250471056653,-0.00127446690186,0.00397565954111,0.0,0.00131638504127,0.000998334,0.0,-1.17233834889,0.0,-6200.0,-300.0,-600.0,32.0,0.0,0.0,0.0,0.0
1354825744736196721,1552,1354825744736196721,0.0452148275856,-0.00113650806283,0.00757667193595,-0.001164379885,0.0103377208953,0.501758803783,0.0463792074706,0.000999868,411.232174011,-1.30791130736,0.0,-6200.0,-300.0,-600.0,32.0,0.0,0.0,0.0,0.0
1354825744746196454,1553,1354825744746196454,0.0502324156235,-0.0012359848961,-0.0211720414896,-0.00121459764078,-0.00989318983024,0.501560494807,0.0514470132643,0.001001786,431.98869821,-0.741842771556,0.0,-6200.0,-300.0,-600.0,32.0,0.0,0.0,0.0,0.0
1354825744756196314,1554,1354825744756196314,0.0552480205715,-0.00117775833124,0.00842537654862,-0.00119503657924,0.00567772384587,0.501342385082,0.0564430571507,0.000998517,454.718368239,0.15084852052,0.0,-6200.0,-300.0,-600.0,32.0,0.0,0.0,0.0,0.0
1354825744766200593,1555,1354825744766200593,0.0602614444223,-0.00114092768555,0.023036794623,-0.0011631034882,0.00376490939936,0.501104483218,0.0614245479105,0.001001347,476.271475267,0.996699564807,0.0,-6200.0,-300.0,-600.0,32.0,0.0,0.0,0.0,0.0
1354825744776197333,1556,1354825744776197333,0.0652724892545,-0.00116538659158,-0.0225742125831,-0.00116612234338,-0.00252318707352,0.500846798607,0.0664386115979,0.000999904,497.688153161,1.71988282614,0.0,-6200.0,-300.0,-600.0,32.0,0.0,0.0,0.0,0.0
1354825744786201961,1557,1354825744786201961,0.0702809572406,-0.00115364692877,0.00793474410161,-0.00112608032344,0.0011525713042,0.500569341422,0.071407037564,0.000998337,500.0,2.3143123807,0.0,-6200.0,-300.0,-600.0,32.0,0.0,0.0,0.0,0.0
1354825744796179682,1558,1354825744796179682,0.0752866506548,-0.00112042228077,0.0072686260285,-0.00115391577705,0.00330778335282,0.500272122616,0.0764405664319,0.000981176,500.0,2.83903186402,0.0,-6200.0,-300.0,-600.0,32.0,0.0,0.0,0.0,0.0
1354825744806199876,1559,1354825744806199876,0.080289371881,-0.00119495047065,-0.0219482771597,-0.00116563617044,-0.0076383179235,0.499955153924,0.0814550080514,0.001001488,500.0,3.26950512414,0.0,-6200.0,-300.0,-600.0,32.0,0.0,0.0,0.0,0.0
1354825744816199162,1560,1354825744816199162,0.0852889234202,-0.00120889271039,0.0244129758576,-0.0012338210736,-0.00113440185976,0.499618447858,0.0865227444938,0.000999165,500.0,3.77841628142,0.0,-6200.0,-300.0,-600.0,32.0,0.0,0.0,0.0,0.0
1354825744826184143,1561,1354825744826184143,0.0902851078988,-0.00114251584345,-0.023035092606,-0.00114851652178,0.00657719156525,0.499262017711,0.0914336244206,0.000999269,500.0,4.55117910597,0.0,-6200.0,-300.0,-600.0,32.0,0.0,0.0,0.0,0.0
1354825744836197554,1562,1354825744836197554,0.0952777280759,-0.00110033012281,0.00686577389437,-0.00111441685648,0.00422322182754,0.498885877555,0.0963921449324,0.000999239,500.0,5.42050019717,0.0,-6200.0,-300.0,-600.0,32.0,0.0,0.0,0.0,0.0
1354825744846197472,1563,1354825744846197472,0.100266586851,-0.0011107750958,-0.00829494351341,-0.00108520898865,-0.000997330198529,0.498490042238,0.10135179584,0.001000252,500.0,6.92471145827,0.0,-6200.0,-300.0,-600.0,32.0,0.0,0.0,0.0,0.0
1354825744856203833,1564,1354825744856203833,0.105251487274,-0.00107502713367,0.00636218072162,-0.00108806741208,0.00351744272974,0.498074527388,0.106339554686,0.00099031,500.0,9.92857489444,0.0,-6200.0,-300.0,-600.0,32.0,0.0,0.0,0.0,0.0
1354825744866183621,1565,1354825744866183621,0.110232232548,-0.000971985837395,0.0196528694788,-0.00099638258414,0.0102877866388,0.497639349409,0.111228615132,0.000997234,500.0,16.317688398,0.0,-6200.0,-300.0,-600.0,32.0,0.0,0.0,0.0,0.0
1354825744876173068,1566,1354825744876173068,0.115208626042,-0.000237970597687,0.143187379071,-0.00049364567309,0.0737045513902,0.49718452548,0.115702271715,0.000980875,500.0,28.1563027727,0.0,-6200.0,-300.0,-600.0,32.0,0.0,0.0,0.0,0.0
1354825744886200170,1567,1354825744886200170,0.120180471297,0.0017859310208,0.302169421853,0.00124429963933,0.202362746718,0.496710073558,0.118936171658,0.000971565,500.0,47.0677542002,0.0,-6200.0,-300.0,-600.0,32.0,0.0,0.0,0.0,0.0
1354825744896164534,1568,1354825744896164534,0.125147572032,0.00618700522192,0.582259149288,0.00509867334454,0.441268944511,0.496216012372,0.120048898687,0.000987737,500.0,69.1657353587,0.0,-6200.0,-300.0,-600.0,32.0,0.0,0.0,0.0,0.0
1354825744906201928,1569,1354825744906201928,0.130109732156,0.0137402141031,0.906281253793,0.0119882784379,0.752877979854,0.495702361428,0.118121453718,0.001001438,500.0,91.6704285623,0.0,-6200.0,-300.0,-600.0,32.0,0.0,0.0,0.0,0.0
1354825744916179776,1570,1354825744916179776,0.13506675577,0.0251483365049,1.32152005973,0.0226260220191,1.1437564476,0.495169141003,0.112440733751,0.000980264,328.379112732,111.855727799,0.0,-6200.0,-300.0,-600.0,32.0,0.0,0.0,0.0,0.0
1354825744926204106,1571,1354825744926204106,0.14001844718,0.0405657129638,1.7172342835,0.0371940584107,1.53837884575,0.494616372149,0.102824388769,0.001018152,129.486490796,128.896865693,0.0,-6200.0,-300.0,-600.0,32.0,0.0,0.0,0.0,0.0
1354825744936178981,1572,1354825744936178981,0.144964610902,0.0593336284631,1.95305564001,0.0554428990242,1.8815924608,0.494044076687,0.0895217118778,0.000979386,-59.3799459695,137.133313883,0.0,-6200.0,-300.0,-600.0,32.0,0.0,0.0,0.0,0.0
1354825744946196794,1573,1354825744946196794,0.149905051669,0.0789388490294,1.89525653483,0.0750898588031,1.95686489605,0.493452277211,0.0748151928659,0.000997358,-151.617347433,130.817117501,0.0,-6200.0,-300.0,-600.0,32.0,0.0,0.0,0.0,0.0
1354825744956186070,1574,1354825744956186070,0.154839574441,0.0962563682927,1.57617136577,0.0930152677809,1.73290259971,0.492840997084,0.0618243066601,0.000999743,-123.691039735,114.847491348,0.0,-6200.0,-300.0,-600.0,32.0,0.0,0.0,0.0,0.0
1354825744966203253,1575,1354825744966203253,0.159767984412,0.110120551544,1.24997053508,0.107591161192,1.38553971803,0.492210260438,0.0521768232199,0.000999517,-31.1518316527,98.1907099362,0.0,-6200.0,-300.0,-600.0,32.0,0.0,0.0,0.0,0.0
1354825744976178713,1576,1354825744976178713,0.164690087016,0.121145253838,0.996509548689,0.119136870538,1.10411480539,0.491560092174,0.0455532164778,0.000980482,53.3898963311,82.859732994,0.0,-6200.0,-300.0,-600.0,32.0,0.0,0.0,0.0,0.0
1354825744986209401,1577,1354825744986209401,0.169605687938,0.130039609958,0.801451393132,0.128400907554,0.886814997659,0.490890517959,0.0412047803838,0.000983747,125.249070669,69.6634586092,0.0,-6200.0,-300.0,-600.0,32.0,0.0,0.0,0.0,0.0
1354825744996163761,1578,1354825744996163761,0.174514593117,0.137315612257,0.685195565646,0.135945947341,0.730913006729,0.490201564227,0.0385686457761,0.000999395,180.371584641,60.6602277775,0.0,-6200.0,-300.0,-600.0,32.0,0.0,0.0,0.0,0.0
1354825745006201963,1579,1354825745006201963,0.17941660876,0.143189236663,0.520398213658,0.142118240204,0.585137844861,0.489493258177,0.037298368556,0.000994659,237.168569707,56.4679308588,0.0,-6200.0,-300.0,-600.0,32.0,0.0,0.0,0.0,0.0
1354825745016181236,1580,1354825745016181236,0.184311541341,0.148215737959,0.449639089939,0.147272378392,0.503402637462,0.488765627771,0.0370391629494,0.000981821,269.959189117,61.0933424777,0.0,-6200.0,-300.0,-600.0,32.0,0.0,0.0,0.0,0.0
1354825745026197475,1581,1354825745026197475,0.189199197619,0.153038764301,0.49060011737,0.152049888945,0.48131131063,0.488018701735,0.0371493086736,0.001015564,279.171954244,76.4035970105,0.0,-6200.0,-300.0,-600.0,32.0,0.0,0.0,0.0,0.0
1354825745036186836,1582,1354825745036186836,0.194079384636,0.159152106064,0.705326013968,0.157792931678,0.611758124471,0.487252509556,0.0362864529579,0.001000264,220.729399383,97.5268624062,0.0,-6200.0,-300.0,-600.0,32.0,0.0,0.0,0.0,0.0
1354825745046198463,1583,1354825745046198463,0.198951909732,0.167931268004,1.01994441148,0.165970049519,0.877256137823,0.486467081482,0.0329818602131,0.001000058,92.185635059,117.984622991,0.0,-6200.0,-300.0,-600.0,32.0,0.0,0.0,0.0,0.0
1354825745056203301,1584,1354825745056203301,0.203816580547,0.179894192368,1.316368515,0.177319372817,1.19614435658,0.485662448521,0.0264972077303,0.000997974,-68.9180787157,130.729446918,0.0,-6200.0,-300.0,-600.0,32.0,0.0,0.0,0.0,0.0
1354825745066168610,1585,1354825745066168610,0.208673205032,0.193050407599,1.31195510996,0.190440757291,1.31907136366,0.484838642438,0.018232447741,0.000981044,-154.610683185,124.608602475,0.0,-6200.0,-300.0,-600.0,32.0,0.0,0.0,0.0,0.0
1354825745076196402,1586,1354825745076196402,0.213521591456,0.204958378139,1.05600784804,0.202773267901,1.18769673916,0.483995695756,0.0107483235547,0.000998651,-134.558539418,109.258362648,0.0,-6200.0,-300.0,-600.0,32.0,0.0,0.0,0.0,0.0
1354825745086183880,1587,1354825745086183880,0.218361548414,0.214100919039,0.809830292209,0.212427822173,0.915316975382,0.483133641752,0.00593372624076,0.000982827,-42.7741369483,93.7970841077,0.0,-6200.0,-300.0,-600.0,32.0,0.0,0.0,0.0,0.0
1354825745096163559,1588,1354825745096163559,0.223192884831,0.221278940157,0.649447679234,0.219970304759,0.718975069973,0.48225251446,0.00322258007167,0.000999343,29.1002553736,79.1814454411,0.0,-6200.0,-300.0,-600.0,32.0,0.0,0.0,0.0,0.0
1354825745106200943,1589,1354825745106200943,0.228015409976,0.226881707479,0.474750028149,0.225883414643,0.558036662752,0.481352348664,0.00213199533284,0.001000204,92.8332804076,66.372661974,0.0,-6200.0,-300.0,-600.0,32.0,0.0,0.0,0.0,0.0
1354825745116184291,1590,1354825745116184291,0.232828933463,0.231212542172,0.387267386067,0.230424402406,0.433793632242,0.480433179901,0.00240453105728,0.000982346,144.020635249,56.9197968781,0.0,-6200.0,-300.0,-600.0,32.0,0.0,0.0,0.0,0.0
1354825745126199421,1591,1354825745126199421,0.237633265262,0.234649922788,0.317830425031,0.234018349187,0.343196508852,0.479495044459,0.00361491607475,0.001002111,181.30361431,51.4318623826,0.0,-6200.0,-300.0,-600.0,32.0,0.0,0.0,0.0,0.0
1354825745137195246,1592,1354825745137195246,0.242428215706,0.237890838508,0.283231094849,0.237278969265,0.293247126722,0.478537979374,0.00514924644067,0.000999595,202.6744282,52.2030499252,0.0,-6200.0,-300.0,-600.0,32.0,0.0,0.0,0.0,0.0
1354825745147197217,1593,1354825745147197217,0.2472135955,0.240722215516,0.302914559925,0.240144786409,0.283031512594,0.477562022429,0.00706880909091,0.000999856,213.388670817,64.3731354887,0.0,-6200.0,-300.0,-600.0,32.0,0.0,0.0,0.0,0.0
1354825745157224010,1594,1354825745157224010,0.251989215724,0.244569602888,0.471158993009,0.243687963442,0.383985220549,0.476567212152,0.00830125228213,0.001017443,186.551662002,83.6813135618,0.0,-6200.0,-300.0,-600.0,32.0,0.0,0.0,0.0,0.0
1354825745167195789,1595,1354825745167195789,0.256754887846,0.250434624828,0.721635755364,0.249055899845,0.587635834438,0.475553587819,0.00769898800066,0.000998962,102.150413086,103.63449407,0.0,-6200.0,-300.0,-600.0,32.0,0.0,0.0,0.0,0.0
1354825745177195033,1596,1354825745177195033,0.261510423724,0.259068726268,0.977681716058,0.257165458093,0.863500433534,0.474521189444,0.00434496563086,0.00099824,-31.1856936415,118.486958684,0.0,-6200.0,-300.0,-600.0,32.0,0.0,0.0,0.0,0.0
1354825745187190810,1597,1354825745187190810,0.266255635618,0.269014121958,0.976612255612,0.267019464223,0.99506003338,0.473470057784,-0.000763828604509,0.000999314,-109.419289608,115.373466508,0.0,-6200.0,-300.0,-600.0,32.0,0.0,0.0,0.0,0.0
1354825745197198565,1598,1354825745197198565,0.270990336196,0.278086157699,0.808716763916,0.276416805688,0.906456083629,0.472400234338,-0.00542646949191,0.00100029,-92.8083858958,101.964836919,0.0,-6200.0,-300.0,-600.0,32.0,0.0,0.0,0.0,0.0
1354825745207198046,1599,1354825745207198046,0.27571433854,0.285194486602,0.61898993268,0.283916277966,0.710890410619,0.471311761339,-0.00820193942611,0.00099819,-21.5957386291,87.8018869741,0.0,-6200.0,-300.0,-600.0,32.0,0.0,0.0,0.0,0.0
1354825745217194989,1600,1354825745217194989,0.280427456153,0.290640331311,0.462834687368,0.289671635157,0.544579131685,0.470204681759,-0.00924417900411,0.000979827,44.4003462455,74.5454926905,0.0,-6200.0,-300.0,-600.0,32.0,0.0,0.0,0.0,0.0
1354825745227202572,1601,1354825745227202572,0.285129502971,0.294948023229,0.375809703514,0.294154053511,0.430428104262,0.469079039304,-0.00902455054042,0.00100528,90.8929472579,62.8310450633,0.0,-6200.0,-300.0,-600.0,32.0,0.0,0.0,0.0,0.0
1354825745237164973,1602,1354825745237164973,0.289820293364,0.29829433874,0.3235849409,0.29767869297,0.335792769092,0.467934878411,-0.00785839960567,0.000985945,128.970320145,55.7043697504,0.0,-6200.0,-300.0,-600.0,32.0,0.0,0.0,0.0,0.0
1354825745247202611,1603,1354825745247202611,0.294499642148,0.301112980681,0.282013752202,0.300571582656,0.280982164608,0.46677224425,-0.0060719405078,0.00100047,152.247952735,53.4753753768,0.0,-6200.0,-300.0,-600.0,32.0,0.0,0.0,0.0,0.0
1354825745257195756,1604,1354825745257195756,0.29916736459,0.303571972001,0.263086325341,0.303066521097,0.245963314416,0.46559118272,-0.00389915650676,0.000999884,169.629960556,60.9619104598,0.0,-6200.0,-300.0,-600.0,32.0,0.0,0.0,0.0,0.0
1354825745267199512,1605,1354825745267199512,0.303823276417,0.306311592988,0.31537447905,0.305705249906,0.27378945055,0.464391740448,-0.00188197348854,0.000999741,171.302246609,76.3498458067,0.0,-6200.0,-300.0,-600.0,32.0,0.0,0.0,0.0,0.0
1354825745277204445,1606,1354825745277204445,0.308467193822,0.310535873809,0.506772073625,0.309561116024,0.422183239253,0.463173964784,-0.00109392220151,0.001006267,125.96951519,94.0520092707,0.0,-6200.0,-300.0,-600.0,32.0,0.0,0.0,0.0,0.0
1354825745287182195,1607,1354825745287182195,0.31309893347,0.31692217923,0.762090864715,0.315446833574,0.640305627563,0.461937903806,-0.00234790010415,0.001017957,30.1817671492,109.913434841,0.0,-6200.0,-300.0,-600.0,32.0,0.0,0.0,0.0,0.0
1354825745297203075,1608,1354825745297203075,0.317718312508,0.325095863388,0.827600294987,0.32342838478,0.815660201187,0.460683606311,-0.005710072272,0.001006124,-60.368494473,112.841780467,0.0,-6200.0,-300.0,-600.0,32.0,0.0,0.0,0.0,0.0
1354825745307199109,1609,1354825745307199109,0.322325148571,0.333088940947,0.743016360903,0.33158900957,0.799523979899,0.459411121815,-0.00926386099892,0.000999265,-69.4465657137,101.902134376,0.0,-6200.0,-300.0,-600.0,32.0,0.0,0.0,0.0,0.0
1354825745317164590,1610,1354825745317164590,0.326919259789,0.339406463934,0.538497956383,0.338298523086,0.633747211276,0.458120500555,-0.0113792632974,0.000993895,0.0,88.4871959667,0.0,-6200.0,-300.0,-600.0,32.0,0.0,0.0,0.0,0.0
1354825745327203275,1611,1354825745327203275,0.331500464795,0.344167506072,0.411581722053,0.343312260777,0.474119069289,0.456811793482,-0.0118117959821,0.001005468,56.3809963583,75.5083463429,0.0,-6200.0,-300.0,-600.0,32.0,0.0,0.0,0.0,0.0
1354825745337185025,1612,1354825745337185025,0.336068582729,0.347920520917,0.366494748121,0.347207149815,0.376320955192,0.455485052261,-0.0111385670858,0.000978588,95.7494037729,65.0151119489,0.0,-6200.0,-300.0,-600.0,32.0,0.0,0.0,0.0,0.0
1354825745347197005,1613,1354825745347197005,0.340623433252,0.351141329104,0.301411281722,0.350551904466,0.321459859084,0.454140329271,-0.00992847121379,0.000998288,118.509122548,59.073655832,0.0,-6200.0,-300.0,-600.0,32.0,0.0,0.0,0.0,0.0
1354825745357167348,1614,1354825745357167348,0.345164836545,0.353728960664,0.249131638792,0.353227401093,0.259596037588,0.452777677598,-0.00806256454832,0.000983118,142.905363971,60.4429831075,0.0,-6200.0,-300.0,-600.0,32.0,0.0,0.0,0.0,0.0
1354825745367197706,1615,1354825745367197706,0.349692613321,0.356197411259,0.260779605864,0.355696386164,0.245926074078,0.451397151037,-0.00600377284316,0.001000928,154.370012882,70.8033133998,0.0,-6200.0,-300.0,-600.0,32.0,0.0,0.0,0.0,0.0
1354825745377165035,1616,1354825745377165035,0.354206584831,0.359032930698,0.326487743464,0.358408530461,0.284607663088,0.44999880409,-0.00420194563019,0.000982868,152.191017004,86.5588841709,0.0,-6200.0,-300.0,-600.0,32.0,0.0,0.0,0.0,0.0
1354825745387178511,1617,1354825745387178511,0.358706572872,0.363184260458,0.473243705363,0.36225725281,0.414859453176,0.448582691961,-0.00355067993764,0.000982078,111.752200455,102.731863061,0.0,-6200.0,-300.0,-600.0,32.0,0.0,0.0,0.0,0.0
1354825745397199221,1618,1354825745397199221,0.363192399792,0.36925464937,0.682748516519,0.367923455704,0.606061798525,0.447148870555,-0.00473105591233,0.001000249,28.0876412353,115.620391179,0.0,-6200.0,-300.0,-600.0,32.0,0.0,0.0,0.0,0.0
1354825745407165195,1619,1354825745407165195,0.367663888497,0.37614262489,0.696939657318,0.374759009043,0.691384502404,0.445697396478,-0.00709512054648,0.00097692,0.0,112.176697919,0.0,-6200.0,-300.0,-600.0,32.0,0.0,0.0,0.0,0.0
1354825745417216139,1620,1354825745417216139,0.372120862462,0.382286964573,0.558881197998,0.381147220252,0.611256797954,0.44422832703,-0.0090263577899,0.001016092,0.0,100.400823443,0.0,-6200.0,-300.0,-600.0,32.0,0.0,0.0,0.0,0.0
1354825745427212838,1621,1354825745427212838,0.376563145732,0.38703001085,0.449120476204,0.386147352569,0.475070671849,0.442741720209,-0.00958420683722,0.001003865,59.6182925325,87.4482088763,0.0,-6200.0,-300.0,-600.0,32.0,0.0,0.0,0.0,0.0
1354825745437166155,1622,1354825745437166155,0.380990562934,0.390807899722,0.317033589511,0.390134445512,0.379041656308,0.441237634702,-0.00914388257809,0.000985669,97.3276473214,77.0262042706,0.0,-6200.0,-300.0,-600.0,32.0,0.0,0.0,0.0,0.0
1354825745447196992,1623,1354825745447196992,0.385402939281,0.393910817493,0.296176732982,0.393334681888,0.309145812199,0.439716129889,-0.00793174260677,0.000998832,124.675673162,73.4863046032,0.0,-6200.0,-300.0,-600.0,32.0,0.0,0.0,0.0,0.0
1354825745457163952,1624,1354825745457163952,0.38980010058,0.396589919668,0.256008803163,0.396057305246,0.268758212642,0.438177265837,-0.0062572046662,0.000982996,142.258498139,78.4197104475,0.0,-6200.0,-300.0,-600.0,32.0,0.0,0.0,0.0,0.0
1354825745467212101,1625,1354825745467212101,0.394181873239,0.399158740904,0.287788232821,0.39861896922,0.2554871388,0.436621103296,-0.00443709598057,0.001013817,152.684867599,89.8689286217,0.0,-6200.0,-300.0,-600.0,32.0,0.0,0.0,0.0,0.0
1354825745477198311,1626,1354825745477198311,0.398548084272,0.402226676387,0.35129373126,0.40152702177,0.307179527181,0.435047703702,-0.00297893749801,0.000999838,144.783231391,104.321655763,0.0,-6200.0,-300.0,-600.0,32.0,0.0,0.0,0.0,0.0
1354825745487166866,1627,1354825745487166866,0.402898561309,0.406666648665,0.484675364225,0.405679713989,0.445307451514,0.433457129169,-0.00278115268034,0.000975924,96.9720094293,117.572029061,0.0,-6200.0,-300.0,-600.0,32.0,0.0,0.0,0.0,0.0
1354825745497198502,1628,1354825745497198502,0.4072331326,0.412391755768,0.592103463859,0.411211383542,0.570994800253,0.431849442491,-0.00397825094204,0.001000815,39.6923123582,124.003146636,0.0,-6200.0,-300.0,-600.0,32.0,0.0,0.0,0.0,0.0
1354825745507165044,1629,1354825745507165044,0.411551627025,0.418040049785,0.505891234658,0.417002700336,0.566495391566,0.430224707136,-0.00545107331051,0.00098489,34.4983443393,116.502664638,0.0,-6200.0,-300.0,-600.0,32.0,0.0,0.0,0.0,0.0
1354825745517206641,1630,1354825745517206641,0.415853874097,0.42261584504,0.427377512617,0.421772266007,0.455946100216,0.428582987247,-0.00591839191009,0.000995305,77.0956887346,104.510451551,0.0,-6200.0,-300.0,-600.0,32.0,0.0,0.0,0.0,0.0
1354825745527196561,1631,1354825745527196561,0.420139703969,0.426338145764,0.352174725754,0.425635147091,0.37238348997,0.426924347635,-0.00549544312155,0.000999371,109.409920285,93.0592346243,0.0,-6200.0,-300.0,-600.0,32.0,0.0,0.0,0.0,0.0
1354825745537198629,1632,1354825745537198629,0.424408947445,0.429434014787,0.275698007923,0.428862784056,0.309423153231,0.425248853781,-0.00445383661148,0.001001888,133.543384731,84.750805378,0.0,-6200.0,-300.0,-600.0,32.0,0.0,0.0,0.0,0.0
1354825745547185122,1633,1354825745547185122,0.428661435983,0.431955453686,0.238720252187,0.431485851594,0.25230179532,0.42355657183,-0.00282441561118,0.000998372,154.864357079,87.6490852694,0.0,-6200.0,-300.0,-600.0,32.0,0.0,0.0,0.0,0.0
1354825745557184776,1634,1354825745557184776,0.432897001702,0.434241537373,0.234358289305,0.433791823202,0.228638599207,0.421847568591,-0.00089482150019,0.000999365,167.523288987,99.7235333727,0.0,-6200.0,-300.0,-600.0,32.0,0.0,0.0,0.0,0.0
1354825745567183737,1635,1354825745567183737,0.437115477387,0.437295636691,0.353904763535,0.436604642673,0.305513131765,0.420121911533,0.000510834714097,0.000999588,154.097612266,115.207476009,0.0,-6200.0,-300.0,-600.0,32.0,0.0,0.0,0.0,0.0
1354825745577229532,1636,1354825745577229532,0.441316696503,0.442079166463,0.550075266612,0.440998688343,0.476887505937,0.418379668781,0.000318008160169,0.00102219,91.5571798223,130.263467178,0.0,-6200.0,-300.0,-600.0,32.0,0.0,0.0,0.0,0.0
1354825745587184459,1637,1354825745587184459,0.445500493191,0.448361747305,0.660135182666,0.447077334218,0.630718141525,0.416620909115,-0.0015768410267,0.000959029,0.0,133.738237269,0.0,-6200.0,-300.0,-600.0,32.0,0.0,0.0,0.0,0.0
1354825745597232461,1638,1354825745597232461,0.449666702282,0.454450035358,0.565035002612,0.453312446052,0.607293596746,0.41484570197,-0.0036457437702,0.000999239,0.0,123.296536674,0.0,-6200.0,-300.0,-600.0,32.0,0.0,0.0,0.0,0.0
1354825745607211209,1639,1354825745607211209,0.453815159301,0.459402552043,0.464982221442,0.458491136651,0.495438538345,0.413054117427,-0.00467597735016,0.001006282,60.1012720151,108.930981575,0.0,-6200.0,-300.0,-600.0,32.0,0.0,0.0,0.0,0.0
1354825745617197441,1640,1354825745617197441,0.457945700476,0.463295157902,0.372385064902,0.462566436222,0.389569073432,0.411246226214,-0.00462073574582,0.000998611,100.492813696,95.1767860154,0.0,-6200.0,-300.0,-600.0,32.0,0.0,0.0,0.0,0.0
1354825745627197715,1641,1354825745627197715,0.462058162738,0.466485358755,0.280070174861,0.465896684716,0.318961670254,0.409422099705,-0.00383852197782,0.000999956,126.675749622,84.3322387518,0.0,-6200.0,-300.0,-600.0,32.0,0.0,0.0,0.0,0.0
1354825745637186866,1642,1354825745637186866,0.466152383735,0.469182024816,0.22559993569,0.468700837688,0.269838210466,0.407581809912,-0.00254845395343,0.000995423,145.131125071,82.9825846098,0.0,-6200.0,-300.0,-600.0,32.0,0.0,0.0,0.0,0.0
1354825745647198535,1643,1354825745647198535,0.470228201834,0.471589574232,0.218796680298,0.471129675283,0.240452612929,0.405725429487,-0.000901473449331,0.000999748,158.281096329,93.0565643263,0.0,-6200.0,-300.0,-600.0,32.0,0.0,0.0,0.0,0.0
1354825745657184900,1644,1354825745657184900,0.474285456129,0.474258646812,0.318236208263,0.473663997914,0.267199135195,0.403853031717,0.000621458214612,0.000999838,157.992118662,107.437002397,0.0,-6200.0,-300.0,-600.0,32.0,0.0,0.0,0.0,0.0
1354825745667185959,1645,1354825745667185959,0.478323986446,0.478191368143,0.461859266845,0.477280891129,0.393328505283,0.40196469052,0.00104309531742,0.000999176,119.835850283,122.932784417,0.0,-6200.0,-300.0,-600.0,32.0,0.0,0.0,0.0,0.0
1354825745677188173,1646,1354825745677188173,0.482343633351,0.483630839505,0.602932950731,0.482485769434,0.543885077462,0.400060480446,-0.000142136082981,0.00099955,54.3142718282,131.789426572,0.0,-6200.0,-300.0,-600.0,32.0,0.0,0.0,0.0,0.0
1354825745687167821,1647,1354825745687167821,0.486344238156,0.489503586204,0.553998203928,0.488383063984,0.588363769011,0.39814047667,-0.00203882582818,0.000982354,26.5054144892,125.77601138,0.0,-6200.0,-300.0,-600.0,32.0,0.0,0.0,0.0,0.0
1354825745697195603,1648,1354825745697195603,0.490325642922,0.494543864952,0.438235728961,0.493630495556,0.502924051011,0.396204754989,-0.0033048526344,0.000993521,55.8942438329,113.37126957,0.0,-6200.0,-300.0,-600.0,32.0,0.0,0.0,0.0,0.0
1354825745707185611,1649,1354825745707185611,0.494287690472,0.49845014381,0.359326471161,0.49772644803,0.390697106182,0.394253391822,-0.00343875755801,0.00099914,98.0539003021,100.349223691,0.0,-6200.0,-300.0,-600.0,32.0,0.0,0.0,0.0,0.0
1354825745717196668,1650,1354825745717196668,0.49823022439,0.501662117963,0.294422096188,0.501070940018,0.320940112198,0.392286464207,-0.00284071562772,0.001001342,123.182700494,88.871792818,0.0,-6200.0,-300.0,-600.0,32.0,0.0,0.0,0.0,0.0
1354825745727227505,1651,1354825745727227505,0.502153089033,0.50435669102,0.239995827382,0.503858821224,0.268922753252,0.390304049794,-0.0017057321912,0.001000243,141.736112079,86.275976152,0.0,-6200.0,-300.0,-600.0,32.0,0.0,0.0,0.0,0.0
1354825745737226788,1652,1354825745737226788,0.50605612953,0.506557629638,0.2234637554,0.506107183901,0.219898973295,0.388306226845,-5.10543709202e-05,0.001003043,158.678523276,95.2620355563,0.0,-6200.0,-300.0,-600.0,32.0,0.0,0.0,0.0,0.0
1354825745747198588,1653,1354825745747198588,0.509939191799,0.509163522281,0.296310321643,0.508589040242,0.260956863684,0.386293074232,0.00135015155656,0.000986699,155.269836862,109.203739948,0.0,-6200.0,-300.0,-600.0,32.0,0.0,0.0,0.0,0.0
1354825745757198221,1654,1354825745757198221,0.513802122541,0.512946859294,0.456879448519,0.512065301752,0.378498032212,0.384264671429,0.00173682078858,0.000999583,120.694287152,124.124159837,0.0,-6200.0,-300.0,-600.0,32.0,0.0,0.0,0.0,0.0
1354825745767199214,1655,1354825745767199214,0.517644769256,0.518266260953,0.5864073965,0.517124958947,0.532114718921,0.382221098515,0.000519810308777,0.001002003,54.584639934,132.628141953,0.0,-6200.0,-300.0,-600.0,32.0,0.0,0.0,0.0,0.0
1354825745777201066,1656,1354825745777201066,0.521466980241,0.523701697982,0.518440857374,0.522677555542,0.543342675454,0.380162436166,-0.00121057530132,0.001006089,41.5159367213,126.50173598,0.0,-6200.0,-300.0,-600.0,32.0,0.0,0.0,0.0,0.0
1354825745787184832,1657,1354825745787184832,0.525268604602,0.528394498133,0.423645148674,0.527533489952,0.470254456001,0.378088765656,-0.00226488534989,0.000981299,65.9919274277,114.366598515,0.0,-6200.0,-300.0,-600.0,32.0,0.0,0.0,0.0,0.0
1354825745797197962,1658,1354825745797197962,0.529049492259,0.532199490799,0.332834058443,0.531511992086,0.379665496536,0.376000168848,-0.00246249982732,0.000999324,98.5513431444,101.999777186,0.0,-6200.0,-300.0,-600.0,32.0,0.0,0.0,0.0,0.0
1354825745807197954,1659,1354825745807197954,0.532809493947,0.535324162097,0.2836384417,0.534745335859,0.312449285631,0.373896728197,-0.00193584191166,0.000999659,121.9332995,91.7578253409,0.0,-6200.0,-300.0,-600.0,32.0,0.0,0.0,0.0,0.0
1354825745817198653,1660,1354825745817198653,0.536548461229,0.537877191616,0.218106354711,0.537417962124,0.255445302508,0.371778526744,-0.000869500894622,0.000996936,140.806428538,91.3110806424,0.0,-6200.0,-300.0,-600.0,32.0,0.0,0.0,0.0,0.0
1354825745827193444,1661,1354825745827193444,0.540266246497,0.540025931748,0.216533029627,0.539607623215,0.214907264941,0.369645648112,0.000658623282052,0.000997134,154.803917231,101.147199656,0.0,-6200.0,-300.0,-600.0,32.0,0.0,0.0,0.0,0.0
1354825745837186647,1662,1354825745837186647,0.543962702978,0.542701607062,0.315844798937,0.542093824226,0.267684362278,0.367498176502,0.00186887875166,0.000999645,147.987827571,114.670670684,0.0,-6200.0,-300.0,-600.0,32.0,0.0,0.0,0.0,0.0
1354825745847192421,1663,1354825745847192421,0.547637684743,0.54650136915,0.420342112728,0.545679758613,0.379865580025,0.365336196693,0.00195792613014,0.001002662,113.211495477,127.948350184,0.0,-6200.0,-300.0,-600.0,32.0,0.0,0.0,0.0,0.0
1354825745857187556,1664,1354825745857187556,0.55129104671,0.55136815443,0.475411879366,0.55038180967,0.486699975096,0.363159794037,0.000909237039539,0.000998957,66.9051792892,132.292094677,0.0,-6200.0,-300.0,-600.0,32.0,0.0,0.0,0.0,0.0
1354825745867186045,1665,1354825745867186045,0.55492264465,0.555948693169,0.42469174085,0.555086548115,0.458203463145,0.360969054453,-0.000163903465477,0.000999259,72.7096591684,125.221235671,0.0,-6200.0,-300.0,-600.0,32.0,0.0,0.0,0.0,0.0
1354825745877236202,1666,1354825745877236202,0.558532335195,0.559717922136,0.348584584293,0.559024185507,0.375574528501,0.35876406443,-0.000491850311867,0.001011725,101.31613655,113.590349247,0.0,-6200.0,-300.0,-600.0,32.0,0.0,0.0,0.0,0.0
1354825745887209490,1667,1354825745887209490,0.562119975839,0.562775258129,0.258927864602,0.562228082124,0.306398913574,0.356544911016,-0.000108106285194,0.000989769,124.370585715,102.908057776,0.0,-6200.0,-300.0,-600.0,32.0,0.0,0.0,0.0,0.0
1354825745897233304,1668,1354825745897233304,0.565685424949,0.565370192247,0.248323822698,0.564856693177,0.258926270609,0.354311681819,0.00082873177238,0.001002195,140.045551741,102.086662658,0.0,-6200.0,-300.0,-600.0,32.0,0.0,0.0,0.0,0.0
1354825745907199625,1669,1354825745907199625,0.569228541767,0.567550994172,0.232145330117,0.56711225728,0.218635908321,0.352064465004,0.0021162844875,0.00100085,153.102665493,110.60109711,0.0,-6200.0,-300.0,-600.0,32.0,0.0,0.0,0.0,0.0
1354825745917196784,1670,1354825745917196784,0.572749186417,0.570119346135,0.319672460949,0.569526422628,0.257018884877,0.349803349286,0.00322276378923,0.000999357,149.012145791,122.6096022,0.0,-6200.0,-300.0,-600.0,32.0,0.0,0.0,0.0,0.0
1354825745927198198,1671,1354825745927198198,0.57624721991,0.573749874537,0.399697906976,0.572975588629,0.363020044147,0.347528423931,0.0032716312806,0.001001274,117.312391294,133.580435861,0.0,-6200.0,-300.0,-600.0,32.0,0.0,0.0,0.0,0.0
1354825745937197881,1672,1354825745937197881,0.57972250415,0.578292712269,0.46128618188,0.577379777092,0.45437697217,0.345239778749,0.00234272705762,0.001000638,78.5224160478,137.662720609,0.0,-6200.0,-300.0,-600.0,32.0,0.0,0.0,0.0,0.0
1354825745947194911,1673,1354825745947194911,0.583174901937,0.582320327603,0.365978119892,0.581563243123,0.402760787133,0.342937504092,0.0016116588137,0.000976564,94.0605244416,130.498589236,0.0,-6200.0,-300.0,-600.0,32.0,0.0,0.0,0.0,0.0
1354825745957197425,1674,1354825745957197425,0.586604276978,0.58571892311,0.311256803785,0.585075612457,0.339802241477,0.340621690849,0.00152866452129,0.000999939,114.561888695,120.433622396,0.0,-6200.0,-300.0,-600.0,32.0,0.0,0.0,0.0,0.0
1354825745967203001,1675,1354825745967203001,0.590010493887,0.588426478015,0.256553590115,0.587914144988,0.270826506344,0.338292430445,0.002096348899,0.001000912,135.96285229,111.917883914,0.0,-6200.0,-300.0,-600.0,32.0,0.0,0.0,0.0,0.0
1354825745977201641,1676,1354825745977201641,0.593393418191,0.590687395308,0.169032503142,0.59028694574,0.226068348441,0.335949814835,0.00310647245101,0.00099981,149.289436138,114.600860323,0.0,-6200.0,-300.0,-600.0,32.0,0.0,0.0,0.0,0.0
1354825745987172448,1677,1354825745987172448,0.596752916339,0.592835320121,0.251101971614,0.59237447447,0.215466746968,0.333593936502,0.00437844186911,0.00098067,155.780010484,123.942920782,0.0,-6200.0,-300.0,-600.0,32.0,0.0,0.0,0.0,0.0
