%time,field.header.seq,field.header.stamp,field.set_point,field.process_value,field.process_value_dot,field.process_value_filtered,field.process_value_dot_filtered,field.commanded_velocity,field.error,field.time_step,field.command,field.measured_effort,field.friction_compensation,field.position_p,field.position_i,field.position_d,field.position_i_clamp,field.velocity_p,field.velocity_i,field.velocity_d,field.velocity_i_clamp
1354825672489194938,574,1354825672489194938,0.00328083186838,0.00456221316383,7.53345571285e-05,0.00456833490934,-0.000173117419851,0.0,-0.00128750304096,0.000986929,0.0,3.71265747469,0.0,-5200.0,-200.0,-500.0,32.0,0.0,0.0,0.0,0.0
1354825672499197684,575,1354825672499197684,0.00328083186838,0.00453628231963,0.000603854720616,0.0045352240508,-0.00257836904489,0.0,-0.00125439218242,0.000999848,0.0,3.76479538963,0.0,-5200.0,-200.0,-500.0,32.0,0.0,0.0,0.0,0.0
1354825672509196960,576,1354825672509196960,0.00328083186838,0.00447427103486,0.00186320816045,0.00448611282135,-0.00623464581932,0.0,-0.00120528095297,0.000999758,0.0,3.71229130867,0.0,-5200.0,-200.0,-500.0,32.0,0.0,0.0,0.0,0.0
1354825672519225130,577,1354825672519225130,0.00328083186838,0.00448728712318,0.00162640012089,0.00449328073127,0.00116010647719,0.0,-0.0012124488629,0.001028388,0.0,3.62640069674,0.0,-5200.0,-200.0,-500.0,32.0,0.0,0.0,0.0,0.0
1354825672529206106,578,1354825672529206106,0.00328083186838,0.00448618671308,-0.0137282648139,0.00451153800916,-9.53167852728e-05,0.0,-0.00123070614078,0.001036117,0.0,3.80003128778,0.0,-5200.0,-200.0,-500.0,32.0,0.0,0.0,0.0,0.0
1354825672539198314,579,1354825672539198314,0.00328083186838,0.00458512965038,0.0150239082578,0.00457012966766,0.00981904845197,0.0,-0.00128929779928,0.001002015,0.0,4.01743140086,0.0,-5200.0,-200.0,-500.0,32.0,0.0,0.0,0.0,0.0
1354825672549225857,580,1354825672549225857,0.00328083186838,0.00448941937463,0.01696564305,0.00448577220862,-0.00959418258657,0.0,-0.00120494034024,0.001028045,0.0,4.0046890861,0.0,-5200.0,-200.0,-500.0,32.0,0.0,0.0,0.0,0.0
1354825672559231222,581,1354825672559231222,0.00328083186838,0.00446045837057,0.00216859770218,0.00446533224848,-0.0028172129482,0.0,-0.0011845003801,0.001026844,0.0,3.69147615749,0.0,-5200.0,-200.0,-500.0,32.0,0.0,0.0,0.0,0.0
1354825672569218054,582,1354825672569218054,0.00328083186838,0.00447718634272,0.00182066652091,0.00447342068412,0.00173737140985,0.0,-0.00119258881574,0.00101642,0.0,3.38514118905,0.0,-5200.0,-200.0,-500.0,32.0,0.0,0.0,0.0,0.0
1354825672579184361,583,1354825672579184361,0.00328083186838,0.00455010628848,0.015685028751,0.00452848970082,0.00751367125549,0.0,-0.00124765783244,0.000956607,0.0,3.13480440083,0.0,-5200.0,-200.0,-500.0,32.0,0.0,0.0,0.0,0.0
1354825672589232176,584,1354825672589232176,0.00328083186838,0.00455491604442,-0.0151768049246,0.00455504124665,0.000571300324497,0.0,-0.00127420937827,0.001030049,0.0,3.05937504261,0.0,-5200.0,-200.0,-500.0,32.0,0.0,0.0,0.0,0.0
1354825672599215558,585,1354825672599215558,0.00328083186838,0.00456906504705,0.0306492662688,0.00457240803099,0.00139793217705,0.0,-0.00129157616261,0.000982542,0.0,3.08750112057,0.0,-5200.0,-200.0,-500.0,32.0,0.0,0.0,0.0,0.0
1354825672609202664,586,1354825672609202664,0.00328083186838,0.00448434722902,-0.013749089191,0.00450582566047,-0.00850233223582,0.0,-0.00122499379209,0.000959725,0.0,3.04579274118,0.0,-5200.0,-200.0,-500.0,32.0,0.0,0.0,0.0,0.0
1354825672619227022,587,1354825672619227022,0.00328083186838,0.00453568380073,-0.0301592702709,0.00455742817625,0.00515923363913,0.0,-0.00127659630787,0.001027942,0.0,2.88888604852,0.0,-5200.0,-200.0,-500.0,32.0,0.0,0.0,0.0,0.0
1354825672629209424,588,1354825672629209424,0.00328083186838,0.00452888847844,0.0160990008792,0.00453236188448,-0.000886070445289,0.0,-0.0012515300161,0.001034524,0.0,2.78946859245,0.0,-5200.0,-200.0,-500.0,32.0,0.0,0.0,0.0,0.0
1354825672639201414,589,1354825672639201414,0.00328083186838,0.00455705526781,-0.0152110461197,0.00457551279731,0.00281224422437,0.0,-0.00129468092893,0.001000752,0.0,2.86875963799,0.0,-5200.0,-200.0,-500.0,32.0,0.0,0.0,0.0,0.0
1354825672649233229,590,1354825672649233229,0.00328083186838,0.00450268332936,-0.0141100731368,0.00451928668934,-0.00542709993997,0.0,-0.00123845482096,0.001027262,0.0,3.07432188004,0.0,-5200.0,-200.0,-500.0,32.0,0.0,0.0,0.0,0.0
1354825672659228208,591,1354825672659228208,0.00328083186838,0.00450025003372,-0.0140643063985,0.00450416262587,-0.000270803146236,0.0,-0.00122333075749,0.001024606,0.0,3.24208618575,0.0,-5200.0,-200.0,-500.0,32.0,0.0,0.0,0.0,0.0
1354825672669202761,592,1354825672669202761,0.00328083186838,0.00451175327079,0.0164581507375,0.00450293922773,0.00118744940449,0.0,-0.00122210735936,0.001002865,0.0,3.24848144977,0.0,-5200.0,-200.0,-500.0,32.0,0.0,0.0,0.0,0.0
1354825672679189049,593,1354825672679189049,0.00328083186838,0.00460743619059,0.0452654659776,0.00455957168266,0.00967677747978,0.0,-0.00127873981428,0.000966902,0.0,3.48858192742,0.0,-5200.0,-200.0,-500.0,32.0,0.0,0.0,0.0,0.0
1354825672689227590,594,1354825672689227590,0.00328083186838,0.00461156612971,-0.0163170240997,0.0046172266364,0.000427838051016,0.0,-0.00133639476802,0.001027965,0.0,3.84580331053,0.0,-5200.0,-200.0,-500.0,32.0,0.0,0.0,0.0,0.0
1354825672699228412,595,1354825672699228412,0.00328083186838,0.00462451800753,-0.0166025886221,0.00463376492243,0.00146256973314,0.0,-0.00135293305405,0.001030925,0.0,3.76635444912,0.0,-5200.0,-200.0,-500.0,32.0,0.0,0.0,0.0,0.0
1354825672709223772,596,1354825672709223772,0.00328083186838,0.00462721304219,-0.00127694333257,0.0046266022128,0.000205049220584,0.0,-0.00134577034442,0.001024797,0.0,3.99058644902,0.0,-5200.0,-200.0,-500.0,32.0,0.0,0.0,0.0,0.0
1354825672719225018,597,1354825672719225018,0.00328083186838,0.00464396293123,-0.016982031704,0.00464786810694,0.00168630126314,0.0,-0.00136703623856,0.001027413,0.0,4.0355999326,0.0,-5200.0,-200.0,-500.0,32.0,0.0,0.0,0.0,0.0
1354825672729225738,598,1354825672729225738,0.00328083186838,0.0046838182576,-0.0024460006356,0.00467026820082,0.00412887110083,0.0,-0.00138943633244,0.001026899,0.0,3.98167464006,0.0,-5200.0,-200.0,-500.0,32.0,0.0,0.0,0.0,0.0
1354825672739204668,599,1354825672739204668,0.00328083186838,0.00467410917552,-0.017611278716,0.00469752120577,-0.00103319828515,0.0,-0.00141668933739,0.001001584,0.0,3.80414521852,0.0,-5200.0,-200.0,-500.0,32.0,0.0,0.0,0.0,0.0
1354825672749234417,600,1354825672749234417,0.00328083186838,0.00460677373108,-0.0162458943378,0.00463701188432,-0.00673097014557,0.0,-0.00135618001594,0.001031968,0.0,3.65797055123,0.0,-5200.0,-200.0,-500.0,32.0,0.0,0.0,0.0,0.0
1354825672759231814,601,1354825672759231814,0.00328083186838,0.00464225226843,0.0137899350176,0.00462308309782,0.00351157267611,0.0,-0.00134225122944,0.001028855,0.0,3.53873422213,0.0,-5200.0,-200.0,-500.0,32.0,0.0,0.0,0.0,0.0
1354825672769199412,602,1354825672769199412,0.00328083186838,0.00448528015693,-0.0445316538229,0.00453878553168,-0.0156807371234,0.0,-0.0012579536633,0.001003362,0.0,3.7026815896,0.0,-5200.0,-200.0,-500.0,32.0,0.0,0.0,0.0,0.0
1354825672779192119,603,1354825672779192119,0.00328083186838,0.00461005753547,0.0144431817675,0.00459029282423,0.0124872400827,0.0,-0.00130946095585,0.000969759,0.0,3.74850767974,0.0,-5200.0,-200.0,-500.0,32.0,0.0,0.0,0.0,0.0
1354825672789227168,604,1354825672789227168,0.00328083186838,0.00458721798902,-0.000455745481999,0.00459435721772,-0.00233425042657,0.0,-0.00131352534934,0.001028598,0.0,3.83130860174,0.0,-5200.0,-200.0,-500.0,32.0,0.0,0.0,0.0,0.0
1354825672799197242,605,1354825672799197242,0.00328083186838,0.00462605145614,-0.0166075567867,0.00462249011104,0.00384586982601,0.0,-0.00134165824266,0.000999255,0.0,3.62638787991,0.0,-5200.0,-200.0,-500.0,32.0,0.0,0.0,0.0,0.0
1354825672809225835,606,1354825672809225835,0.00328083186838,0.00469178771331,0.0128082447908,0.00464644830598,0.00651825004467,0.0,-0.0013656164376,0.001025579,0.0,3.90721183744,0.0,-5200.0,-200.0,-500.0,32.0,0.0,0.0,0.0,0.0
1354825672819226905,607,1354825672819226905,0.00328083186838,0.0046754901292,-0.0176342577914,0.00470553364084,-0.00145827427669,0.0,-0.00142470177247,0.00102729,0.0,4.11550953561,0.0,-5200.0,-200.0,-500.0,32.0,0.0,0.0,0.0,0.0
1354825672829206916,608,1354825672829206916,0.00328083186838,0.00470782349078,0.0124543784082,0.00469759047535,0.00326111150516,0.0,-0.00141675860698,0.00099934,0.0,4.21936961686,0.0,-5200.0,-200.0,-500.0,32.0,0.0,0.0,0.0,0.0
1354825672839203640,609,1354825672839203640,0.00328083186838,0.00459908992379,-0.000710341520903,0.00463153728398,-0.0109330982359,0.0,-0.0013507054156,0.001003224,0.0,4.43331295708,0.0,-5200.0,-200.0,-500.0,32.0,0.0,0.0,0.0,0.0
1354825672849230816,610,1354825672849230816,0.00328083186838,0.00455791701704,0.0155079333418,0.0045256460086,-0.00428416156986,0.0,-0.00124481414022,0.001028195,0.0,4.536276886,0.0,-5200.0,-200.0,-500.0,32.0,0.0,0.0,0.0,0.0
1354825672859225257,611,1354825672859225257,0.00328083186838,0.00458676827604,-0.000443216461795,0.00457820024164,0.00285796908604,0.0,-0.00129736837326,0.001026062,0.0,4.71730292066,0.0,-5200.0,-200.0,-500.0,32.0,0.0,0.0,0.0,0.0
1354825672869198316,612,1354825672869198316,0.00328083186838,0.00455735760068,-0.0152112160688,0.00456035726998,-0.00299802104165,0.0,-0.0012795254016,0.001000525,0.0,4.92943297969,0.0,-5200.0,-200.0,-500.0,32.0,0.0,0.0,0.0,0.0
1354825672879192510,613,1354825672879192510,0.00328083186838,0.00444264558303,-0.0589976548242,0.00450566365511,-0.0116435452226,0.0,-0.00122483178673,0.000968957,0.0,4.70284177067,0.0,-5200.0,-200.0,-500.0,32.0,0.0,0.0,0.0,0.0
1354825672889207256,614,1354825672889207256,0.00328083186838,0.00444325822955,-0.0128697183769,0.00447274780493,3.68332768697e-05,0.0,-0.00119191593655,0.001009788,0.0,4.52162764771,0.0,-5200.0,-200.0,-500.0,32.0,0.0,0.0,0.0,0.0
1354825672899197596,615,1354825672899197596,0.00328083186838,0.00445434076349,0.0176609895889,0.00444016544062,0.00107097302692,0.0,-0.00115933357224,0.001001043,0.0,4.4619117641,0.0,-5200.0,-200.0,-500.0,32.0,0.0,0.0,0.0,0.0
1354825672909215601,616,1354825672909215601,0.00328083186838,0.00454760466196,0.0157769160459,0.00451524213134,0.00932311678093,0.0,-0.00123441026296,0.001016239,0.0,4.52704114779,0.0,-5200.0,-200.0,-500.0,32.0,0.0,0.0,0.0,0.0
1354825672919224071,617,1354825672919224071,0.00328083186838,0.00446870037805,0.00198003936864,0.00447080143186,-0.00780303632825,0.0,-0.00118996956348,0.001017721,0.0,4.52220073305,0.0,-5200.0,-200.0,-500.0,32.0,0.0,0.0,0.0,0.0
1354825672929197619,618,1354825672929197619,0.00328083186838,0.00445571166872,-0.0131437906834,0.00447014177884,-0.0012257782466,0.0,-0.00118930991046,0.000994983,0.0,4.62050284212,0.0,-5200.0,-200.0,-500.0,32.0,0.0,0.0,0.0,0.0
1354825672939181442,619,1354825672939181442,0.00328083186838,0.0043832550912,0.0190766549222,0.004378709118,-0.00728301164058,0.0,-0.00109787724962,0.000984131,0.0,4.70882579582,0.0,-5200.0,-200.0,-500.0,32.0,0.0,0.0,0.0,0.0
1354825672949215883,620,1354825672949215883,0.00328083186838,0.00437578421434,0.0192279270914,0.00437369818231,-0.000773738711485,0.0,-0.00109286631394,0.001015848,0.0,4.90952869066,0.0,-5200.0,-200.0,-500.0,32.0,0.0,0.0,0.0,0.0
1354825672959217057,621,1354825672959217057,0.00328083186838,0.00449238195506,0.016883549636,0.00448593736631,0.0116469073734,0.0,-0.00120510549794,0.001017218,0.0,5.1072144621,0.0,-5200.0,-200.0,-500.0,32.0,0.0,0.0,0.0,0.0
1354825672969198099,622,1354825672969198099,0.00328083186838,0.00449174492602,-0.0138668678104,0.00450435950703,6.19747810384e-05,0.0,-0.00122352763865,0.001001766,0.0,5.03019884668,0.0,-5200.0,-200.0,-500.0,32.0,0.0,0.0,0.0,0.0
1354825672979192626,623,1354825672979192626,0.00328083186838,0.00448778742733,-0.0138056931862,0.00450357590232,-0.000318222126244,0.0,-0.00122274403394,0.000986171,0.0,5.04546178936,0.0,-5200.0,-200.0,-500.0,32.0,0.0,0.0,0.0,0.0
1354825672989213776,624,1354825672989213776,0.00328083186838,0.00448122215179,0.0478311852992,0.00444207654577,-0.000730648400758,0.0,-0.00116124467739,0.001013302,0.0,5.03849166994,0.0,-5200.0,-200.0,-500.0,32.0,0.0,0.0,0.0,0.0
1354825672999203964,625,1354825672999203964,0.00328083186838,0.00446855613896,0.0173496972244,0.00447373655058,-0.00127063590214,0.0,-0.0011929046822,0.001005964,0.0,4.85898584221,0.0,-5200.0,-200.0,-500.0,32.0,0.0,0.0,0.0,0.0
1354825673009228366,626,1354825673009228366,0.00328083186838,0.00443134037445,0.00272624692644,0.00443180514316,-0.00371082950305,0.0,-0.00115097327478,0.001017372,0.0,4.56198548478,0.0,-5200.0,-200.0,-500.0,32.0,0.0,0.0,0.0,0.0
1354825673019219996,627,1354825673019219996,0.00328083186838,0.00438193213988,-0.0270367074727,0.00440898462376,-0.00494035459923,0.0,-0.00112815275538,0.001001559,0.0,4.48673598027,0.0,-5200.0,-200.0,-500.0,32.0,0.0,0.0,0.0,0.0
1354825673029221884,628,1354825673029221884,0.00328083186838,0.00438898602954,0.00357068840386,0.00437515766626,0.000624511772599,0.0,-0.00109432579788,0.001003308,0.0,4.43753377903,0.0,-5200.0,-200.0,-500.0,32.0,0.0,0.0,0.0,0.0
1354825673039203080,629,1354825673039203080,0.00328083186838,0.0045578782879,0.0309076390745,0.00452892240624,0.0168942012312,0.0,-0.00124809053787,0.001006897,0.0,4.52314508601,0.0,-5200.0,-200.0,-500.0,32.0,0.0,0.0,0.0,0.0
1354825673049215308,630,1354825673049215308,0.00328083186838,0.00461597177818,0.0143654570514,0.00460515357058,0.00576512570628,0.0,-0.0013243217022,0.00101489,0.0,4.43406714643,0.0,-5200.0,-200.0,-500.0,32.0,0.0,0.0,0.0,0.0
1354825673059198424,631,1354825673059198424,0.00328083186838,0.0045937734284,0.030196150658,0.00459155778081,-0.00227301456644,0.0,-0.00131072591243,0.000998934,0.0,4.30164425823,0.0,-5200.0,-200.0,-500.0,32.0,0.0,0.0,0.0,0.0
1354825673069193894,632,1354825673069193894,0.00328083186838,0.00451945697798,-0.0144176449562,0.00452988642083,-0.00745755958377,0.0,-0.00124905455245,0.000980795,0.0,4.38788720314,0.0,-5200.0,-200.0,-500.0,32.0,0.0,0.0,0.0,0.0
1354825673079209765,633,1354825673079209765,0.00328083186838,0.00451726416201,0.0163896631209,0.00450886610551,-0.000284573307236,0.0,-0.00122803423713,0.001001984,0.0,4.53445437152,0.0,-5200.0,-200.0,-500.0,32.0,0.0,0.0,0.0,0.0
1354825673089191702,634,1354825673089191702,0.00328083186838,0.00446289880139,-0.0286394377682,0.00451817230063,-0.00540648997108,0.0,-0.00123734043225,0.000989149,0.0,4.4364493273,0.0,-5200.0,-200.0,-500.0,32.0,0.0,0.0,0.0,0.0
1354825673099159079,635,1354825673099159079,0.00328083186838,0.00447401670364,-0.0288826174541,0.00449866950944,0.00120696549809,0.0,-0.00121783764106,0.001000533,0.0,4.1449266392,0.0,-5200.0,-200.0,-500.0,32.0,0.0,0.0,0.0,0.0
1354825673109158512,636,1354825673109158512,0.00328083186838,0.00453782564131,0.0159555500093,0.0045019754256,0.0063407533982,0.0,-0.00122114355722,0.000975994,0.0,3.99367060179,0.0,-5200.0,-200.0,-500.0,32.0,0.0,0.0,0.0,0.0
1354825673119230732,637,1354825673119230732,0.00328083186838,0.00458686645091,0.014968078494,0.00455907486421,0.00484514659718,0.0,-0.00127824299583,0.001002411,0.0,4.00536196197,0.0,-5200.0,-200.0,-500.0,32.0,0.0,0.0,0.0,0.0
1354825673129228623,638,1354825673129228623,0.00328083186838,0.00458989916949,-0.0312619111244,0.00461505312848,0.000788610878347,0.0,-0.0013342212601,0.001055119,0.0,4.2030690759,0.0,-5200.0,-200.0,-500.0,32.0,0.0,0.0,0.0,0.0
1354825673139153314,639,1354825673139153314,0.00328083186838,0.00469712428973,0.0126744029643,0.00465867378977,0.0107644608159,0.0,-0.00137784192139,0.000999821,0.0,4.18783666666,0.0,-5200.0,-200.0,-500.0,32.0,0.0,0.0,0.0,0.0
1354825673149137422,640,1354825673149137422,0.00328083186838,0.00464227875463,-0.0169570255205,0.00467659757535,-0.00554801388697,0.0,-0.00139576570697,0.00099039,0.0,4.35083179899,0.0,-5200.0,-200.0,-500.0,32.0,0.0,0.0,0.0,0.0
1354825673159183110,641,1354825673159183110,0.00328083186838,0.00457016163741,-0.0154905020513,0.0045958648233,-0.00721158583774,0.0,-0.00131503295492,0.001024492,0.0,4.36319768955,0.0,-5200.0,-200.0,-500.0,32.0,0.0,0.0,0.0,0.0
1354825673169190172,642,1354825673169190172,0.00328083186838,0.00457146767297,0.0152575910827,0.0045680795533,-2.91911260326e-05,0.0,-0.00128724768492,0.001027603,0.0,4.45786128234,0.0,-5200.0,-200.0,-500.0,32.0,0.0,0.0,0.0,0.0
1354825673179158267,643,1354825673179158267,0.00328083186838,0.00458649718846,0.0303287199988,0.00455890712693,0.00155394685035,0.0,-0.00127807525855,0.000996922,0.0,4.46729083092,0.0,-5200.0,-200.0,-500.0,32.0,0.0,0.0,0.0,0.0
1354825673189195927,644,1354825673189195927,0.00328083186838,0.00458045041557,-0.000287629507747,0.00459358691181,-0.000625236576229,0.0,-0.00131275504343,0.001029194,0.0,4.48441203869,0.0,-5200.0,-200.0,-500.0,32.0,0.0,0.0,0.0,0.0
1354825673199230555,645,1354825673199230555,0.00328083186838,0.00461992782728,-0.00108415564524,0.00461286345137,0.00394503158706,0.0,-0.00133203158299,0.001038682,0.0,4.1870439968,0.0,-5200.0,-200.0,-500.0,32.0,0.0,0.0,0.0,0.0
1354825673209180942,646,1354825673209180942,0.00328083186838,0.00452694758864,-0.0145583998825,0.00455613937029,-0.00948006057019,0.0,-0.00127530750192,0.000981484,0.0,4.20049807648,0.0,-5200.0,-200.0,-500.0,32.0,0.0,0.0,0.0,0.0
1354825673219196219,647,1354825673219196219,0.00328083186838,0.00458892156952,-0.000446308935772,0.00457745718985,0.00621931758039,0.0,-0.00129662532147,0.001001196,0.0,4.18052033656,0.0,-5200.0,-200.0,-500.0,32.0,0.0,0.0,0.0,0.0
1354825673229178039,648,1354825673229178039,0.00328083186838,0.00453078912344,0.00072514296572,0.00452934513652,-0.0058037233299,0.0,-0.00124851326814,0.000980966,0.0,4.14785044528,0.0,-5200.0,-200.0,-500.0,32.0,0.0,0.0,0.0,0.0
1354825673239207648,649,1354825673239207648,0.00328083186838,0.00452681603797,0.0161762021804,0.00450926110213,-0.000380965236633,0.0,-0.00122842923375,0.00100743,0.0,4.34484682364,0.0,-5200.0,-200.0,-500.0,32.0,0.0,0.0,0.0,0.0
1354825673249192974,650,1354825673249192974,0.00328083186838,0.00460765091702,0.0299201703938,0.00456205448937,0.00808072738513,0.0,-0.001281222621,0.000999704,0.0,4.28224553672,0.0,-5200.0,-200.0,-500.0,32.0,0.0,0.0,0.0,0.0
1354825673259199534,651,1354825673259199534,0.00328083186838,0.00462955350638,0.0141285384814,0.00462881899136,0.00209525834646,0.0,-0.00134798712298,0.001002124,0.0,4.30290729858,0.0,-5200.0,-200.0,-500.0,32.0,0.0,0.0,0.0,0.0
1354825673269214670,652,1354825673269214670,0.00328083186838,0.00476934493244,-0.00407509554852,0.00474951688822,0.0139830996483,0.0,-0.00146868501984,0.000986075,0.0,4.33141153633,0.0,-5200.0,-200.0,-500.0,32.0,0.0,0.0,0.0,0.0
1354825673279216389,653,1354825673279216389,0.00328083186838,0.00485418900447,-0.00578980074681,0.00485295042096,0.00843445942678,0.0,-0.00157211855258,0.000954977,0.0,4.25661385378,0.0,-5200.0,-200.0,-500.0,32.0,0.0,0.0,0.0,0.0
1354825673289205310,654,1354825673289205310,0.00328083186838,0.00481940162425,0.0102837120732,0.00480453809011,-0.00343411668247,0.0,-0.00152370622174,0.00100826,0.0,4.39168679405,0.0,-5200.0,-200.0,-500.0,32.0,0.0,0.0,0.0,0.0
1354825673299211461,655,1354825673299211461,0.00328083186838,0.00470098746684,-0.0180763767447,0.00476000163372,-0.0118275769263,0.0,-0.00147916976534,0.001001989,0.0,4.44846897693,0.0,-5200.0,-200.0,-500.0,32.0,0.0,0.0,0.0,0.0
1354825673309192980,656,1354825673309192980,0.00328083186838,0.0046616380909,-0.00191267080864,0.00466875987641,-0.00392333256257,0.0,-0.00138792800804,0.000998262,0.0,4.38373228477,0.0,-5200.0,-200.0,-500.0,32.0,0.0,0.0,0.0,0.0
1354825673319194521,657,1354825673319194521,0.00328083186838,0.00458643053873,-0.0311452304155,0.00461255773037,-0.00751116643969,0.0,-0.00133172586199,0.001002375,0.0,4.31416149787,0.0,-5200.0,-200.0,-500.0,32.0,0.0,0.0,0.0,0.0
1354825673329165314,658,1354825673329165314,0.00328083186838,0.00459745632346,-0.000612139803166,0.0045863367194,0.00109258539371,0.0,-0.00130550485102,0.000982549,0.0,4.38097643731,0.0,-5200.0,-200.0,-500.0,32.0,0.0,0.0,0.0,0.0
1354825673339194616,659,1354825673339194616,0.00328083186838,0.00459453038498,0.0148022517261,0.00458626572973,-0.00010264874659,0.0,-0.00130543386135,0.000998247,0.0,4.5149053939,0.0,-5200.0,-200.0,-500.0,32.0,0.0,0.0,0.0,0.0
1354825673349201126,660,1354825673349201126,0.00328083186838,0.00449395995825,-0.0139213352036,0.00450046996596,-0.010043556724,0.0,-0.00121963809758,0.000999242,0.0,4.44136082641,0.0,-5200.0,-200.0,-500.0,32.0,0.0,0.0,0.0,0.0
1354825673359199166,661,1354825673359199166,0.00328083186838,0.00446551855578,-0.0133347034252,0.00448040811259,-0.00290825392471,0.0,-0.00119957624422,0.000998683,0.0,4.4705255888,0.0,-5200.0,-200.0,-500.0,32.0,0.0,0.0,0.0,0.0
1354825673369198925,662,1354825673369198925,0.00328083186838,0.00441277580755,0.0184814068413,0.00441868119125,-0.00534453697255,0.0,-0.00113784932287,0.00099714,0.0,4.2224559742,0.0,-5200.0,-200.0,-500.0,32.0,0.0,0.0,0.0,0.0
1354825673379205032,663,1354825673379205032,0.00328083186838,0.00444564986356,0.0485652015498,0.0044088239218,0.00329197022224,0.0,-0.00112799205342,0.001001758,0.0,4.1845153396,0.0,-5200.0,-200.0,-500.0,32.0,0.0,0.0,0.0,0.0
1354825673389165691,664,1354825673389165691,0.00328083186838,0.00435826734191,0.0195766752154,0.0043559960793,-0.00869579375187,0.0,-0.00107516421093,0.000980582,0.0,4.29415067356,0.0,-5200.0,-200.0,-500.0,32.0,0.0,0.0,0.0,0.0
1354825673399228150,665,1354825673399228150,0.00328083186838,0.00439656716162,0.0187953078483,0.00438299796958,0.00370784887613,0.0,-0.0011021661012,0.001019756,0.0,4.49179595706,0.0,-5200.0,-200.0,-500.0,32.0,0.0,0.0,0.0,0.0
1354825673409170208,666,1354825673409170208,0.00328083186838,0.00438869924986,0.0189406030738,0.00436292019134,-0.000773260312819,0.0,-0.00108208832296,0.000983447,0.0,4.27683810051,0.0,-5200.0,-200.0,-500.0,32.0,0.0,0.0,0.0,0.0
1354825673419215541,667,1354825673419215541,0.00328083186838,0.00443013104813,-0.0433957135793,0.00445699344936,0.00416265954811,0.0,-0.00117616158098,0.001018003,0.0,4.09420770523,0.0,-5200.0,-200.0,-500.0,32.0,0.0,0.0,0.0,0.0
1354825673429182707,668,1354825673429182707,0.00328083186838,0.00449460610509,0.0321652443685,0.00448181953339,0.00641208885409,0.0,-0.00120098766501,0.001006517,0.0,3.89989964515,0.0,-5200.0,-200.0,-500.0,32.0,0.0,0.0,0.0,0.0
1354825673439184680,669,1354825673439184680,0.00328083186838,0.0045209002245,-0.0145003111091,0.00451929323234,0.00268480712697,0.0,-0.00123846136397,0.000987554,0.0,4.06815269095,0.0,-5200.0,-200.0,-500.0,32.0,0.0,0.0,0.0,0.0
1354825673449211731,670,1354825673449211731,0.00328083186838,0.00443168815446,-0.0126911414712,0.00445138574541,-0.00893884777596,0.0,-0.00117055387704,0.001013145,0.0,3.95415124828,0.0,-5200.0,-200.0,-500.0,32.0,0.0,0.0,0.0,0.0
1354825673459202212,671,1354825673459202212,0.00328083186838,0.0045346306925,0.0159715548258,0.00452052957712,0.0103436764103,0.0,-0.00123969770874,0.001000036,0.0,4.0433869534,0.0,-5200.0,-200.0,-500.0,32.0,0.0,0.0,0.0,0.0
1354825673469201740,672,1354825673469201740,0.00328083186838,0.00455059679896,0.000279180196185,0.00456244650052,0.00160174725017,0.0,-0.00128161463215,0.001004582,0.0,4.01109592218,0.0,-5200.0,-200.0,-500.0,32.0,0.0,0.0,0.0,0.0
1354825673479195697,673,1354825673479195697,0.00328083186838,0.00449485867541,0.00140223338926,0.00452322560868,-0.00553952585527,0.0,-0.0012423937403,0.000996897,0.0,4.10081679505,0.0,-5200.0,-200.0,-500.0,32.0,0.0,0.0,0.0,0.0
1354825673489179937,674,1354825673489179937,0.00328083186838,0.00442651934761,0.00279009366326,0.00442690550854,-0.00687512161044,0.0,-0.00114607364016,0.001002306,0.0,4.01183908566,0.0,-5200.0,-200.0,-500.0,32.0,0.0,0.0,0.0,0.0
1354825673499196122,675,1354825673499196122,0.00328083186838,0.0045324272229,-0.0147282887295,0.00452514318815,0.0107253834837,0.0,-0.00124431131977,0.001003201,0.0,4.20572165985,0.0,-5200.0,-200.0,-500.0,32.0,0.0,0.0,0.0,0.0
1354825673509196057,676,1354825673509196057,0.00328083186838,0.00456531662507,1.70965286949e-07,0.00456212806969,0.00323534626542,0.0,-0.00128129620131,0.001000225,0.0,4.41844359832,0.0,-5200.0,-200.0,-500.0,32.0,0.0,0.0,0.0,0.0
1354825673519214507,677,1354825673519214507,0.00328083186838,0.00456734907682,-4.04707757123e-05,0.00456752452136,0.000271285469575,0.0,-0.00128669265299,0.001016175,0.0,4.36855154498,0.0,-5200.0,-200.0,-500.0,32.0,0.0,0.0,0.0,0.0
1354825673529169414,678,1354825673529169414,0.00328083186838,0.0046203037716,0.0142521917494,0.0046136516034,0.00537300570642,0.0,-0.00133281973502,0.000972129,0.0,4.17391940359,0.0,-5200.0,-200.0,-500.0,32.0,0.0,0.0,0.0,0.0
1354825673539222270,679,1354825673539222270,0.00328083186838,0.00455427569455,-0.0151699426388,0.00457913012971,-0.00653126468163,0.0,-0.00129829826133,0.000991217,0.0,4.10078579245,0.0,-5200.0,-200.0,-500.0,32.0,0.0,0.0,0.0,0.0
1354825673549223528,680,1354825673549223528,0.00328083186838,0.00455574706321,-0.0459491182409,0.00456904802872,0.000136781827297,0.0,-0.00128821616034,0.001015838,0.0,3.66164662239,0.0,-5200.0,-200.0,-500.0,32.0,0.0,0.0,0.0,0.0
1354825673559214107,681,1354825673559214107,0.00328083186838,0.0046260384366,-0.0166186907721,0.00460998864458,0.00701892795343,0.0,-0.0013291567762,0.001012562,0.0,3.59780332173,0.0,-5200.0,-200.0,-500.0,32.0,0.0,0.0,0.0,0.0
1354825673569217008,682,1354825673569217008,0.00328083186838,0.00472590089538,0.0121056167199,0.00469774728288,0.00997876040101,0.0,-0.0014169154145,0.001017269,0.0,3.58700259281,0.0,-5200.0,-200.0,-500.0,32.0,0.0,0.0,0.0,0.0
1354825673579221880,683,1354825673579221880,0.00328083186838,0.00471431983603,-0.0030240599343,0.0047081303995,-0.00118311791875,0.0,-0.00142729853112,0.001020667,0.0,3.48054904396,0.0,-5200.0,-200.0,-500.0,32.0,0.0,0.0,0.0,0.0
1354825673589229503,684,1354825673589229503,0.00328083186838,0.00474189309916,0.0117999316347,0.00473928569786,0.00272760230696,0.0,-0.00145845382948,0.00103063,0.0,3.39337657449,0.0,-5200.0,-200.0,-500.0,32.0,0.0,0.0,0.0,0.0
1354825673599255725,685,1354825673599255725,0.00328083186838,0.00477877074196,0.0110616124077,0.00476520497528,0.0036938164808,0.0,-0.0014843731069,0.001023018,0.0,3.31987283367,0.0,-5200.0,-200.0,-500.0,32.0,0.0,0.0,0.0,0.0
1354825673609236052,686,1354825673609236052,0.00328083186838,0.00471120761765,-0.0183372470449,0.00473667316187,-0.00667073149179,0.0,-0.00145584129349,0.001040375,0.0,3.37856678798,0.0,-5200.0,-200.0,-500.0,32.0,0.0,0.0,0.0,0.0
1354825673619184636,687,1354825673619184636,0.00328083186838,0.00466699524154,-0.0174687992726,0.00468694685987,-0.00433071531728,0.0,-0.00140611499149,0.000999044,0.0,3.58684275352,0.0,-5200.0,-200.0,-500.0,32.0,0.0,0.0,0.0,0.0
1354825673629164701,688,1354825673629164701,0.00328083186838,0.00462154447205,-0.0011545115523,0.00461749407608,-0.00459797386733,0.0,-0.0013366622077,0.000979821,0.0,3.56852563854,0.0,-5200.0,-200.0,-500.0,32.0,0.0,0.0,0.0,0.0
1354825673639188512,689,1354825673639188512,0.00328083186838,0.00472387430569,0.0121573319242,0.00469590389871,0.0102200115041,0.0,-0.00141507203033,0.000986378,0.0,3.59128529296,0.0,-5200.0,-200.0,-500.0,32.0,0.0,0.0,0.0,0.0
1354825673649230334,690,1354825673649230334,0.0150787517723,0.00461249537223,0.0144164457826,0.00462039529664,-0.0111805901688,0.502532458234,0.0104583564757,0.001002352,215.076168232,3.26237246999,0.0,-5200.0,-200.0,-500.0,32.0,0.0,0.0,0.0,0.0
1354825673659228703,691,1354825673659228703,0.0201040763547,0.00469501674698,-0.00262801979563,0.00471622620462,0.00830469413201,0.502453090783,0.0153878501501,0.001017126,235.64536913,3.68953759718,0.0,-5200.0,-200.0,-500.0,32.0,0.0,0.0,0.0,0.0
1354825673669153655,692,1354825673669153655,0.0251286072625,0.00471353515855,0.0123714487933,0.00471022129862,0.00184409231185,0.502353887344,0.0204183859639,0.000976759,253.110126269,4.73817860389,0.0,-5200.0,-200.0,-500.0,32.0,0.0,0.0,0.0,0.0
1354825673679198742,693,1354825673679198742,0.0301521461359,0.00470861169531,-0.01827341044,0.00474292805898,-0.000583247763576,0.502234851834,0.0254092180769,0.00103993,270.96989083,6.32382743983,0.0,-5200.0,-200.0,-500.0,32.0,0.0,0.0,0.0,0.0
1354825673689184300,694,1354825673689184300,0.0351744946543,0.00472291328219,0.0121924355585,0.00472623367435,0.00141721138968,0.502095988952,0.03044826098,0.000994904,289.599039766,8.81299173736,0.0,-5200.0,-200.0,-500.0,32.0,0.0,0.0,0.0,0.0
1354825673699197929,695,1354825673699197929,0.0401954545438,0.00475069533277,0.0116362290791,0.00474562626881,0.0027410318226,0.50193730418,0.035449828275,0.001001199,308.000976895,13.4647136523,0.0,-5200.0,-200.0,-500.0,32.0,0.0,0.0,0.0,0.0
1354825673709184066,696,1354825673709184066,0.0452148275856,0.00483276132163,0.0407422978349,0.00479213526168,0.00807578029941,0.501758803783,0.0404226923239,0.001033303,326.834830096,24.9590776741,0.0,-5200.0,-200.0,-500.0,32.0,0.0,0.0,0.0,0.0
1354825673719184777,697,1354825673719184777,0.0502324156235,0.00584062904089,0.127998727486,0.00556365691013,0.100821616948,0.501560494807,0.0446687587134,0.000999417,352.276077892,44.1701302019,0.0,-5200.0,-200.0,-500.0,32.0,0.0,0.0,0.0,0.0
1354825673729202033,698,1354825673729202033,0.0552480205715,0.00872353234675,0.423373490109,0.0079485992156,0.288093526588,0.501342385082,0.0472994213559,0.001001951,348.356407907,67.6399765336,0.0,-5200.0,-200.0,-500.0,32.0,0.0,0.0,0.0,0.0
1354825673739167584,699,1354825673739167584,0.0602614444223,0.0146886201308,0.76408549101,0.0132514612428,0.598212944184,0.501104483218,0.0470099831795,0.000977001,252.716389738,91.6076140794,0.0,-5200.0,-200.0,-500.0,32.0,0.0,0.0,0.0,0.0
1354825673749211495,700,1354825673749211495,0.0652724892545,0.0246909168509,1.17694000938,0.0224342511804,0.998770756749,0.500846798607,0.0428382380741,0.000984404,94.576921493,112.669020851,0.0,-5200.0,-200.0,-500.0,32.0,0.0,0.0,0.0,0.0
1354825673759185247,701,1354825673759185247,0.0702809572406,0.0380786688237,1.42919683439,0.0352269093802,1.34012388009,0.500569341422,0.0350540478604,0.000999086,-49.126556782,124.391337728,0.0,-5200.0,-200.0,-500.0,32.0,0.0,0.0,0.0,0.0
1354825673769184413,702,1354825673769184413,0.0752866506548,0.0530797089913,1.44903487601,0.0501126257072,1.50020269688,0.500272122616,0.0251740249476,0.000999512,-137.006525314,123.047506636,0.0,-5200.0,-200.0,-500.0,32.0,0.0,0.0,0.0,0.0
1354825673779166263,703,1354825673779166263,0.080289371881,0.0666410439921,1.23658320686,0.0641341759459,1.35828186791,0.499955153924,0.0161551959351,0.000982597,-124.100376654,108.665095669,0.0,-5200.0,-200.0,-500.0,32.0,0.0,0.0,0.0,0.0
1354825673789185712,704,1354825673789185712,0.0852889234202,0.077511670787,0.986212051584,0.0755344135917,1.08484518451,0.499618447858,0.00975450982854,0.000943582,-56.0489893282,93.8194863709,0.0,-5200.0,-200.0,-500.0,32.0,0.0,0.0,0.0,0.0
1354825673799193956,705,1354825673799193956,0.0902851078988,0.0860613531859,0.767392200573,0.0845219386803,0.853629738444,0.499262017711,0.00576316921846,0.00097171,0.0,79.3814400023,0.0,-5200.0,-200.0,-500.0,32.0,0.0,0.0,0.0,0.0
1354825673809164013,706,1354825673809164013,0.0952777280759,0.0929031462656,0.613809779705,0.0916521335789,0.685677499215,0.498885877555,0.00362559449702,0.000979568,62.6619928419,66.5415305019,0.0,-5200.0,-200.0,-500.0,32.0,0.0,0.0,0.0,0.0
1354825673819190155,707,1354825673819190155,0.100266586851,0.0984753508378,0.501261041272,0.0974558389526,0.555939371194,0.498490042238,0.00281074789838,0.000997413,105.852509095,56.4975022506,0.0,-5200.0,-200.0,-500.0,32.0,0.0,0.0,0.0,0.0
1354825673829166741,708,1354825673829166741,0.105251487274,0.102843246534,0.428385495367,0.102022911878,0.437544958669,0.498074527388,0.00322857539558,0.000983103,146.995059508,50.1064508908,0.0,-5200.0,-200.0,-500.0,32.0,0.0,0.0,0.0,0.0
1354825673839185846,709,1354825673839185846,0.110232232548,0.106527042592,0.323217565935,0.105858500501,0.367595067766,0.497639349409,0.00437373204667,0.000997112,171.79121158,48.2051127146,0.0,-5200.0,-200.0,-500.0,32.0,0.0,0.0,0.0,0.0
1354825673849183088,710,1354825673849183088,0.115208626042,0.109818798781,0.333599213958,0.109166274725,0.32919168209,0.49718452548,0.0060423513172,0.00099985,187.688698505,53.2664519169,0.0,-5200.0,-200.0,-500.0,32.0,0.0,0.0,0.0,0.0
1354825673859165066,711,1354825673859165066,0.120180471297,0.113182856197,0.373266452319,0.112449135636,0.337067162302,0.496710073558,0.00773133566098,0.000978659,191.748465921,58.4664291198,0.0,-5200.0,-200.0,-500.0,32.0,0.0,0.0,0.0,0.0
1354825673869183618,712,1354825673869183618,0.125147572032,0.11792130492,0.585026265728,0.116828507931,0.473072992366,0.496216012372,0.00831906410085,0.000999603,153.460401052,79.0136446872,0.0,-5200.0,-200.0,-500.0,32.0,0.0,0.0,0.0,0.0
1354825673879185267,713,1354825673879185267,0.130109732156,0.12509443691,0.870600488243,0.123483254424,0.71728820134,0.495702361428,0.00662647773181,0.000999709,61.1532371712,99.6913099334,0.0,-5200.0,-200.0,-500.0,32.0,0.0,0.0,0.0,0.0
1354825673889206608,714,1354825673889206608,0.13506675577,0.134587367794,1.03243279199,0.132577991703,0.949151216544,0.495169141003,0.00248876406702,0.000976681,-36.8935846452,111.019842818,0.0,-5200.0,-200.0,-500.0,32.0,0.0,0.0,0.0,0.0
1354825673899174170,715,1354825673899174170,0.14001844718,0.144528496699,0.939234382853,0.142606623944,0.996187156149,0.494616372149,-0.00258817676386,0.000980296,-72.0512720009,103.527019608,0.0,-5200.0,-200.0,-500.0,32.0,0.0,0.0,0.0,0.0
1354825673909238970,716,1354825673909238970,0.144964610902,0.15285528247,0.724889068882,0.151360713401,0.826904919054,0.494044076687,-0.00639610249903,0.001015161,-26.3104062195,90.7137750847,0.0,-5200.0,-200.0,-500.0,32.0,0.0,0.0,0.0,0.0
1354825673919159334,717,1354825673919159334,0.149905051669,0.159249676042,0.611075348718,0.158050714121,0.644266407277,0.493452277211,-0.00814566245154,0.000988289,32.8109074326,78.2239684362,0.0,-5200.0,-200.0,-500.0,32.0,0.0,0.0,0.0,0.0
1354825673929165574,718,1354825673929165574,0.154839574441,0.16437283144,0.476813669152,0.163438870969,0.512150885725,0.492840997084,-0.00859929652803,0.000980275,77.4783665575,66.8591339593,0.0,-5200.0,-200.0,-500.0,32.0,0.0,0.0,0.0,0.0
1354825673939166576,719,1354825673939166576,0.159767984412,0.168624576031,0.406305640364,0.167835976264,0.42491691735,0.492210260438,-0.00806799185168,0.000982365,107.740577152,58.9173375896,0.0,-5200.0,-200.0,-500.0,32.0,0.0,0.0,0.0,0.0
1354825673949164911,720,1354825673949164911,0.164690087016,0.172026072659,0.306848300563,0.171374089513,0.340045519793,0.491560092174,-0.00668400249678,0.000981276,136.640452829,57.2848493476,0.0,-5200.0,-200.0,-500.0,32.0,0.0,0.0,0.0,0.0
1354825673959184939,721,1354825673959184939,0.169605687938,0.174995862864,0.292991678116,0.174436401431,0.296258959142,0.490890517959,-0.00483071349314,0.000998849,153.319691566,66.6426322457,0.0,-5200.0,-200.0,-500.0,32.0,0.0,0.0,0.0,0.0
1354825673969156160,722,1354825673969156160,0.174514593117,0.178251660721,0.350207021891,0.177574551466,0.326729401249,0.490201564227,-0.00305995834903,0.000984494,152.651458976,81.8112623213,0.0,-5200.0,-200.0,-500.0,32.0,0.0,0.0,0.0,0.0
1354825673979249864,723,1354825673979249864,0.17941660876,0.182527037743,0.525235220056,0.181526459539,0.423860006811,0.489493258177,-0.00210985077869,0.001053223,128.813922672,99.1397906279,0.0,-5200.0,-200.0,-500.0,32.0,0.0,0.0,0.0,0.0
1354825673989166276,724,1354825673989166276,0.184311541341,0.188656376764,0.678135563523,0.187302131168,0.616922876989,0.488765627771,-0.0029905898274,0.000976601,59.7127872732,114.590554808,0.0,-5200.0,-200.0,-500.0,32.0,0.0,0.0,0.0,0.0
1354825673999196464,725,1354825673999196464,0.189199197619,0.196148837947,0.772775693971,0.194629313408,0.747714350705,0.488018701735,-0.00543011578949,0.000999224,0.0,115.875707866,0.0,-5200.0,-200.0,-500.0,32.0,0.0,0.0,0.0,0.0
1354825674009184851,726,1354825674009184851,0.194079384636,0.203197126084,0.630389466824,0.201885717155,0.704968834541,0.487252509556,-0.00780633251904,0.000998487,0.0,105.702522606,0.0,-5200.0,-200.0,-500.0,32.0,0.0,0.0,0.0,0.0
1354825674019164991,727,1354825674019164991,0.198951909732,0.208812432111,0.516972395306,0.207785454317,0.562851985087,0.486467081482,-0.00883354458523,0.000995368,56.7594462474,93.1654096918,0.0,-5200.0,-200.0,-500.0,32.0,0.0,0.0,0.0,0.0
1354825674029182503,728,1354825674029182503,0.203816580547,0.213402073165,0.424244907331,0.21252865855,0.458186797036,0.485662448521,-0.00871207800294,0.001020477,92.4834301175,81.853114214,0.0,-5200.0,-200.0,-500.0,32.0,0.0,0.0,0.0,0.0
1354825674039187368,729,1354825674039187368,0.208673205032,0.217104210917,0.349450014042,0.216403709887,0.369832193632,0.484838642438,-0.00773050485501,0.001025411,122.523215532,72.970496474,0.0,-5200.0,-200.0,-500.0,32.0,0.0,0.0,0.0,0.0
1354825674049151410,730,1354825674049151410,0.213521591456,0.220070883601,0.304898680154,0.21949512282,0.297699547484,0.483995695756,-0.00597353136372,0.00099893,146.376304114,71.9070464466,0.0,-5200.0,-200.0,-500.0,32.0,0.0,0.0,0.0,0.0
1354825674059184672,731,1354825674059184672,0.218361548414,0.222795257122,0.31134880196,0.222228826938,0.271529161432,0.483133641752,-0.00386727852429,0.000999408,158.893674257,81.9932592047,0.0,-5200.0,-200.0,-500.0,32.0,0.0,0.0,0.0,0.0
1354825674069203691,732,1354825674069203691,0.223192884831,0.226019935616,0.369202739893,0.225282498091,0.322103713897,0.48225251446,-0.00208961325961,0.001004476,154.444792317,97.7723092931,0.0,-5200.0,-200.0,-500.0,32.0,0.0,0.0,0.0,0.0
1354825674079187341,733,1354825674079187341,0.228015409976,0.230740263796,0.550574621196,0.229663042917,0.472299873827,0.481352348664,-0.00164763294144,0.001000337,112.082731343,114.288009168,0.0,-5200.0,-200.0,-500.0,32.0,0.0,0.0,0.0,0.0
1354825674089195993,734,1354825674089195993,0.232828933463,0.237415318633,0.753962684114,0.235929425601,0.667364827728,0.480433179901,-0.00310049213848,0.00103159,38.2318701882,125.251130554,0.0,-5200.0,-200.0,-500.0,32.0,0.0,0.0,0.0,0.0
1354825674099190363,735,1354825674099190363,0.237633265262,0.24493075412,0.725134490223,0.243462131658,0.751545700761,0.479495044459,-0.0058288663965,0.001002481,0.0,119.517568001,0.0,-5200.0,-200.0,-500.0,32.0,0.0,0.0,0.0,0.0
1354825674109183914,736,1354825674109183914,0.242428215706,0.251502721952,0.623126264968,0.250280462848,0.657488636748,0.478537979374,-0.00785224714237,0.000997611,23.7869936798,106.783377398,0.0,-5200.0,-200.0,-500.0,32.0,0.0,0.0,0.0,0.0
1354825674119184757,737,1354825674119184757,0.2472135955,0.256757219846,0.440119571172,0.255822003788,0.525191766988,0.477562022429,-0.00860840828847,0.001000008,67.5040506539,93.1682080365,0.0,-5200.0,-200.0,-500.0,32.0,0.0,0.0,0.0,0.0
1354825674129185692,738,1354825674129185692,0.251989215724,0.260926737834,0.402007665593,0.26015443444,0.41689823155,0.476567212152,-0.00816521871567,0.001000209,104.255998304,81.3948623595,0.0,-5200.0,-200.0,-500.0,32.0,0.0,0.0,0.0,0.0
1354825674139244838,739,1354825674139244838,0.256754887846,0.264352900786,0.317422885248,0.263712709438,0.341050062713,0.475553587819,-0.00695782159156,0.00102471,129.662524551,72.9404020826,0.0,-5200.0,-200.0,-500.0,32.0,0.0,0.0,0.0,0.0
1354825674149185643,740,1354825674149185643,0.261510423724,0.267134672964,0.261221135869,0.266623520669,0.279554943865,0.474521189444,-0.00511309694514,0.000999364,149.786818209,73.6570718109,0.0,-5200.0,-200.0,-500.0,32.0,0.0,0.0,0.0,0.0
1354825674159185737,741,1354825674159185737,0.266255635618,0.269904426966,0.297507659378,0.269332116059,0.277008621215,0.473470057784,-0.0030764804406,0.000999508,157.320688873,85.4022243608,0.0,-5200.0,-200.0,-500.0,32.0,0.0,0.0,0.0,0.0
1354825674169153200,742,1354825674169153200,0.270990336196,0.273344076542,0.427851965028,0.272545399212,0.345181566002,0.472400234338,-0.00155506301614,0.000993744,147.184505398,101.379144012,0.0,-5200.0,-200.0,-500.0,32.0,0.0,0.0,0.0,0.0
1354825674179195726,743,1354825674179195726,0.27571433854,0.278759278845,0.610579931587,0.277558145679,0.539924067716,0.471311761339,-0.0018438071395,0.00100202,84.8446502509,116.505000461,0.0,-5200.0,-200.0,-500.0,32.0,0.0,0.0,0.0,0.0
1354825674189185621,744,1354825674189185621,0.280427456153,0.286098527571,0.754429586919,0.284566703743,0.73409341689,0.470204681759,-0.00413924758996,0.001000931,0.0,122.924001493,0.0,-5200.0,-200.0,-500.0,32.0,0.0,0.0,0.0,0.0
1354825674199190648,745,1354825674199190648,0.285129502971,0.293830435226,0.705856809873,0.292363527218,0.772996419366,0.469079039304,-0.00723402424681,0.001000958,0.0,114.836350438,0.0,-5200.0,-200.0,-500.0,32.0,0.0,0.0,0.0,0.0
1354825674209226995,746,1354825674209226995,0.289820293364,0.300255130487,0.576078698105,0.299093613086,0.640594354747,0.467934878411,-0.00927331972242,0.000997914,20.8991020047,101.59379147,0.0,-5200.0,-200.0,-500.0,32.0,0.0,0.0,0.0,0.0
1354825674219230511,747,1354825674219230511,0.294499642148,0.305284751854,0.428348917099,0.304368996556,0.502932012376,0.46677224425,-0.00986935440765,0.001001835,66.6701557575,88.3885541248,0.0,-5200.0,-200.0,-500.0,32.0,0.0,0.0,0.0,0.0
1354825674229182551,748,1354825674229182551,0.29916736459,0.309324512969,0.36211319946,0.308578795574,0.405301869153,0.46559118272,-0.00941143098375,0.000998999,99.3099030567,76.8175693357,0.0,-5200.0,-200.0,-500.0,32.0,0.0,0.0,0.0,0.0
1354825674239188325,749,1354825674239188325,0.303823276417,0.312628279145,0.326122813032,0.31200370799,0.330228402636,0.464391740448,-0.00818043157337,0.000998743,123.920467029,68.7324825108,0.0,-5200.0,-200.0,-500.0,32.0,0.0,0.0,0.0,0.0
1354825674249247811,750,1354825674249247811,0.308467193822,0.31543230264,0.284848234738,0.31488723777,0.279139227417,0.463173964784,-0.00642004394837,0.001019026,141.056882168,68.73649368,0.0,-5200.0,-200.0,-500.0,32.0,0.0,0.0,0.0,0.0
1354825674259186933,751,1354825674259186933,0.31309893347,0.317958596726,0.264554021981,0.317431317768,0.254025567301,0.461937903806,-0.00433238429777,0.00099939,152.624159133,79.3617098218,0.0,-5200.0,-200.0,-500.0,32.0,0.0,0.0,0.0,0.0
1354825674269189460,752,1354825674269189460,0.317718312508,0.321140856906,0.384743160431,0.320424065405,0.318419036507,0.460683606311,-0.00270575289732,0.000997868,145.375745565,94.8822814739,0.0,-5200.0,-200.0,-500.0,32.0,0.0,0.0,0.0,0.0
1354825674279187201,753,1354825674279187201,0.322325148571,0.325891840344,0.550126292779,0.324827724815,0.475013691463,0.459411121815,-0.00250257624407,0.001001948,100.251464577,109.869615206,0.0,-5200.0,-200.0,-500.0,32.0,0.0,0.0,0.0,0.0
1354825674289168908,754,1354825674289168908,0.326919259789,0.332559903442,0.753650430858,0.331101775638,0.668328155569,0.458120500555,-0.00418251584903,0.001008212,25.9901676439,119.08267669,0.0,-5200.0,-200.0,-500.0,32.0,0.0,0.0,0.0,0.0
1354825674299187292,755,1354825674299187292,0.331500464795,0.33990915853,0.712810692775,0.338475119553,0.733186991315,0.456811793482,-0.00697465475761,0.00100283,0.0,113.864261447,0.0,-5200.0,-200.0,-500.0,32.0,0.0,0.0,0.0,0.0
1354825674309184332,756,1354825674309184332,0.336068582729,0.346311873445,0.552718642544,0.345160554718,0.640434512673,0.455485052261,-0.00909197198886,0.000998694,0.0,103.151545012,0.0,-5200.0,-200.0,-500.0,32.0,0.0,0.0,0.0,0.0
1354825674319184621,757,1354825674319184621,0.340623433252,0.351313835632,0.467039167314,0.350389489371,0.500153316686,0.454140329271,-0.00976605611855,0.000998348,63.4873068362,89.8866508926,0.0,-5200.0,-200.0,-500.0,32.0,0.0,0.0,0.0,0.0
1354825674329191091,758,1354825674329191091,0.345164836545,0.355313184103,0.370873556115,0.354571241018,0.399791026866,0.452777677598,-0.00940640447298,0.001000342,96.4048899165,78.4368796641,0.0,-5200.0,-200.0,-500.0,32.0,0.0,0.0,0.0,0.0
1354825674339166236,759,1354825674339166236,0.349692613321,0.358647508202,0.288145842123,0.3580329278,0.33402227288,0.451397151037,-0.00834031447922,0.000980949,117.778038581,70.1947752798,0.0,-5200.0,-200.0,-500.0,32.0,0.0,0.0,0.0,0.0
1354825674349188614,760,1354825674349188614,0.354206584831,0.36125345222,0.25087015309,0.360761495212,0.26007824698,0.44999880409,-0.00655491038137,0.000998856,139.283491309,69.655626569,0.0,-5200.0,-200.0,-500.0,32.0,0.0,0.0,0.0,0.0
1354825674359173393,761,1354825674359173393,0.358706572872,0.363695164097,0.23230166362,0.363231573256,0.244583493322,0.448582691961,-0.00452500038407,0.000977651,148.61168513,80.0240202924,0.0,-5200.0,-200.0,-500.0,32.0,0.0,0.0,0.0,0.0
1354825674369186081,762,1354825674369186081,0.363192399792,0.366593333903,0.342853765423,0.36594317681,0.289445020966,0.447148870555,-0.00275077701828,0.00100057,146.708638963,95.0375182199,0.0,-5200.0,-200.0,-500.0,32.0,0.0,0.0,0.0,0.0
1354825674379185307,763,1354825674379185307,0.367663888497,0.371135068736,0.519252508718,0.370123422403,0.454138383633,0.445697396478,-0.002459533906,0.00099835,102.349679208,109.998302182,0.0,-5200.0,-200.0,-500.0,32.0,0.0,0.0,0.0,0.0
1354825674389186390,764,1354825674389186390,0.372120862462,0.377199853615,0.661638107049,0.375893440551,0.606429867356,0.44422832703,-0.00377257808937,0.0009944,44.7330473915,120.264342185,0.0,-5200.0,-200.0,-500.0,32.0,0.0,0.0,0.0,0.0
1354825674399186594,765,1354825674399186594,0.376563145732,0.383598307297,0.602101923607,0.382364414904,0.639781683499,0.442741720209,-0.00580126917237,0.00099976,24.881591745,115.370928386,0.0,-5200.0,-200.0,-500.0,32.0,0.0,0.0,0.0,0.0
1354825674409203793,766,1354825674409203793,0.380990562934,0.389129902362,0.490354136624,0.388106150809,0.552599146516,0.441237634702,-0.00711558787522,0.001005018,50.507490595,104.132499114,0.0,-5200.0,-200.0,-500.0,32.0,0.0,0.0,0.0,0.0
1354825674419254536,767,1354825674419254536,0.385402939281,0.393505462145,0.415903977572,0.392695006645,0.435608107643,0.439716129889,-0.00729206736357,0.001022837,88.5234071834,92.6905356119,0.0,-5200.0,-200.0,-500.0,32.0,0.0,0.0,0.0,0.0
1354825674429265597,768,1354825674429265597,0.38980010058,0.39708258238,0.32971874393,0.396390827423,0.357395863402,0.438177265837,-0.00659072684304,0.001031327,113.452072641,82.3230161192,0.0,-5200.0,-200.0,-500.0,32.0,0.0,0.0,0.0,0.0
1354825674439249519,769,1354825674439249519,0.394181873239,0.399958730226,0.229779052294,0.399432953098,0.288454304778,0.436621103296,-0.0052510798593,0.001017018,134.063275951,79.3703234998,0.0,-5200.0,-200.0,-500.0,32.0,0.0,0.0,0.0,0.0
1354825674449190221,770,1354825674449190221,0.398548084272,0.402396328025,0.2502294465,0.401931196931,0.245017318859,0.435047703702,-0.00338311265892,0.000998783,147.917474751,87.2380059534,0.0,-5200.0,-200.0,-500.0,32.0,0.0,0.0,0.0,0.0
1354825674459186155,771,1354825674459186155,0.402898561309,0.405187753211,0.36114907649,0.404561034323,0.279095991683,0.433457129169,-0.00166247301449,0.000999763,147.861889534,101.079812367,0.0,-5200.0,-200.0,-500.0,32.0,0.0,0.0,0.0,0.0
1354825674469197634,772,1354825674469197634,0.4072331326,0.408979643444,0.45186340419,0.408113701666,0.378743253307,0.431849442491,-0.000880569065556,0.001006376,126.165185909,115.656957365,0.0,-5200.0,-200.0,-500.0,32.0,0.0,0.0,0.0,0.0
1354825674479184663,773,1354825674479184663,0.411551627025,0.414267422803,0.568104925515,0.413113092641,0.529125728407,0.430224707136,-0.00156146561574,0.001031793,75.0199837551,127.332558532,0.0,-5200.0,-200.0,-500.0,32.0,0.0,0.0,0.0,0.0
1354825674489158249,774,1354825674489158249,0.415853874097,0.420049961928,0.548892382109,0.418932787253,0.579867115175,0.428582987247,-0.00307891315551,0.000998092,51.164807,126.967081033,0.0,-5200.0,-200.0,-500.0,32.0,0.0,0.0,0.0,0.0
1354825674499167326,775,1354825674499167326,0.420139703969,0.425177048731,0.459268863817,0.424250574015,0.511854305442,0.426924347635,-0.00411087004635,0.00098128,70.49326554,117.312944182,0.0,-5200.0,-200.0,-500.0,32.0,0.0,0.0,0.0,0.0
1354825674509184921,776,1354825674509184921,0.424408947445,0.429291136609,0.362224587541,0.428536074081,0.410521546131,0.425248853781,-0.00412712663555,0.000997776,102.703433931,106.119358083,0.0,-5200.0,-200.0,-500.0,32.0,0.0,0.0,0.0,0.0
1354825674519189037,777,1354825674519189037,0.428661435983,0.432729390673,0.320662600286,0.432092466669,0.343691394505,0.42355657183,-0.00343103068622,0.000998565,123.402444065,96.6536639378,0.0,-5200.0,-200.0,-500.0,32.0,0.0,0.0,0.0,0.0
1354825674529186489,778,1354825674529186489,0.432897001702,0.435507366181,0.250596830286,0.434995864739,0.277780827784,0.421847568591,-0.00209886303681,0.000998471,142.435240044,98.4968597937,0.0,-5200.0,-200.0,-500.0,32.0,0.0,0.0,0.0,0.0
1354825674539158264,779,1354825674539158264,0.437115477387,0.43809282509,0.254131781059,0.437582793835,0.259457174627,0.420121911533,-0.000467316447853,0.000998649,151.032602415,108.342150762,0.0,-5200.0,-200.0,-500.0,32.0,0.0,0.0,0.0,0.0
1354825674549185802,780,1354825674549185802,0.441316696503,0.4412618345,0.385311660248,0.440524594789,0.3158389856,0.418379668781,0.000792101714267,0.001034832,143.760702001,121.181047479,0.0,-5200.0,-200.0,-500.0,32.0,0.0,0.0,0.0,0.0
1354825674559185206,781,1354825674559185206,0.445500493191,0.445856616691,0.515555106948,0.444833518326,0.4595641188,0.416620909115,0.000666974864504,0.000998744,101.740512064,132.011457937,0.0,-5200.0,-200.0,-500.0,32.0,0.0,0.0,0.0,0.0
1354825674569185587,782,1354825674569185587,0.449666702282,0.451391062046,0.557111266676,0.450283613191,0.553485985566,0.41484570197,-0.000616910909412,0.000992487,64.5959325329,135.124216616,0.0,-5200.0,-200.0,-500.0,32.0,0.0,0.0,0.0,0.0
1354825674579248710,783,1354825674579248710,0.453815159301,0.456502092181,0.467809454289,0.45554265958,0.508660042679,0.413054117427,-0.0017275002787,0.001020929,75.4034638204,126.286490303,0.0,-5200.0,-200.0,-500.0,32.0,0.0,0.0,0.0,0.0
1354825674589231986,784,1354825674589231986,0.457945700476,0.460567443234,0.357801818852,0.459816926964,0.407300560152,0.411246226214,-0.00187122648769,0.001002385,106.987563491,114.617778182,0.0,-5200.0,-200.0,-500.0,32.0,0.0,0.0,0.0,0.0
1354825674599255085,785,1354825674599255085,0.462058162738,0.463993544474,0.330451146426,0.463352383953,0.342440328048,0.409422099705,-0.00129422121469,0.000982038,126.558172767,105.046164578,0.0,-5200.0,-200.0,-500.0,32.0,0.0,0.0,0.0,0.0
1354825674609252645,786,1354825674609252645,0.466152383735,0.466754689697,0.260740744886,0.466220803824,0.275539116971,0.407581809912,-6.84200886457e-05,0.001035185,145.260927147,105.04916143,0.0,-5200.0,-200.0,-500.0,32.0,0.0,0.0,0.0,0.0
1354825674619231918,787,1354825674619231918,0.470228201834,0.469340434799,0.264260740752,0.468791552687,0.259085599595,0.405725429487,0.00143664914686,0.001018029,152.995512582,114.621541025,0.0,-5200.0,-200.0,-500.0,32.0,0.0,0.0,0.0,0.0
1354825674629160288,788,1354825674629160288,0.474285456129,0.47254362321,0.380780437817,0.471825573222,0.322288815612,0.403853031717,0.00245988290699,0.001000657,143.25214725,127.473763543,0.0,-5200.0,-200.0,-500.0,32.0,0.0,0.0,0.0,0.0
1354825674639169684,789,1354825674639169684,0.478323986446,0.477028376307,0.485371631126,0.476076943788,0.448015978814,0.40196469052,0.00224704265811,0.000977874,106.100855254,137.295305419,0.0,-5200.0,-200.0,-500.0,32.0,0.0,0.0,0.0,0.0
1354825674649184751,790,1354825674649184751,0.482343633351,0.482280757215,0.54657091755,0.481241996929,0.524422791871,0.400060480446,0.00110163642207,0.000999311,75.7796136637,139.505645546,0.0,-5200.0,-200.0,-500.0,32.0,0.0,0.0,0.0,0.0
1354825674659186404,791,1354825674659186404,0.486344238156,0.487074534432,0.421845953973,0.48617964016,0.479346047281,0.39814047667,0.000164597995512,0.000998425,86.949962279,131.394615709,0.0,-5200.0,-200.0,-500.0,32.0,0.0,0.0,0.0,0.0
1354825674669185253,792,1354825674669185253,0.490325642922,0.490913206053,0.37217868178,0.490187650208,0.383923256635,0.396204754989,0.000137992713968,0.001000542,115.91871209,119.896078324,0.0,-5200.0,-200.0,-500.0,32.0,0.0,0.0,0.0,0.0
1354825674679165369,793,1354825674679165369,0.494287690472,0.494189448893,0.319930060838,0.493550637922,0.32824594268,0.394253391822,0.000737052549911,0.000980167,132.19581541,111.242569143,0.0,-5200.0,-200.0,-500.0,32.0,0.0,0.0,0.0,0.0
1354825674689187712,794,1354825674689187712,0.49823022439,0.496894067181,0.265285538984,0.496364979757,0.269950972882,0.392286464207,0.00186524463287,0.000998355,147.994219217,113.56369512,0.0,-5200.0,-200.0,-500.0,32.0,0.0,0.0,0.0,0.0
1354825674699255758,795,1354825674699255758,0.502153089033,0.499528418759,0.281776071259,0.498960732481,0.262098831819,0.390304049794,0.00319235655219,0.001028575,153.512106002,122.351759362,0.0,-5200.0,-200.0,-500.0,32.0,0.0,0.0,0.0,0.0
1354825674709229332,796,1354825674709229332,0.50605612953,0.502908022265,0.394746433704,0.502135536268,0.338519570315,0.388306226845,0.00392059326201,0.001000892,139.195041845,134.432431487,0.0,-5200.0,-200.0,-500.0,32.0,0.0,0.0,0.0,0.0
1354825674719272645,797,1354825674719272645,0.509939191799,0.507595049167,0.495249440596,0.506597571401,0.466847316803,0.386293074232,0.00334162039841,0.001031682,98.5259700148,142.21946117,0.0,-5200.0,-200.0,-500.0,32.0,0.0,0.0,0.0,0.0
1354825674729252293,798,1354825674729252293,0.513802122541,0.512667737918,0.476409525877,0.511681852412,0.508134130564,0.384264671429,0.00212027012891,0.001021101,79.5639623076,139.214980998,0.0,-5200.0,-200.0,-500.0,32.0,0.0,0.0,0.0,0.0
1354825674739208916,799,1354825674739208916,0.517644769256,0.516984520929,0.403146449964,0.516184302435,0.433541389393,0.382221098515,0.00146046682075,0.000989879,100.944238792,129.399683246,0.0,-5200.0,-200.0,-500.0,32.0,0.0,0.0,0.0,0.0
1354825674749211129,800,1354825674749211129,0.521466980241,0.520438188018,0.333374764097,0.519795234309,0.345193146321,0.380162436166,0.00167174593209,0.000990791,126.464992645,117.782438135,0.0,-5200.0,-200.0,-500.0,32.0,0.0,0.0,0.0,0.0
1354825674759250160,801,1354825674759250160,0.525268604602,0.523380588442,0.260000234584,0.522823495727,0.293162868474,0.378088765656,0.00244510887502,0.001019426,140.682989032,112.082614611,0.0,-5200.0,-200.0,-500.0,32.0,0.0,0.0,0.0,0.0
1354825674769205255,802,1354825674769205255,0.529049492259,0.525745319827,0.240133108876,0.525287558415,0.237543577447,0.376000168848,0.00376193384369,0.00099162,154.379897013,118.231443275,0.0,-5200.0,-200.0,-500.0,32.0,0.0,0.0,0.0,0.0
1354825674779204850,803,1354825674779204850,0.532809493947,0.528433092041,0.297360338622,0.527837956231,0.268751580767,0.373896728197,0.00497153771649,0.000993269,153.133975066,128.610541101,0.0,-5200.0,-200.0,-500.0,32.0,0.0,0.0,0.0,0.0
1354825674789185446,804,1354825674789185446,0.536548461229,0.532233898134,0.443650740446,0.531365141964,0.380503336428,0.371778526744,0.00518331926492,0.000998529,126.785121822,139.438657693,0.0,-5200.0,-200.0,-500.0,32.0,0.0,0.0,0.0,0.0
1354825674799186257,805,1354825674799186257,0.540266246497,0.537098897948,0.512677386843,0.536094879324,0.486472561993,0.369645648112,0.00417136717294,0.000999447,89.2655562702,144.308785399,0.0,-5200.0,-200.0,-500.0,32.0,0.0,0.0,0.0,0.0
1354825674809209911,806,1354825674809209911,0.543962702978,0.541919757225,0.457118046217,0.541005583642,0.48156313568,0.367498176502,0.00295711933621,0.001012023,85.7299192195,137.601029037,0.0,-5200.0,-200.0,-500.0,32.0,0.0,0.0,0.0,0.0
1354825674819186820,807,1354825674819186820,0.547637684743,0.545867464121,0.349488011072,0.545140572683,0.395297486374,0.365336196693,0.0024971120603,0.000998737,110.483656656,127.504288046,0.0,-5200.0,-200.0,-500.0,32.0,0.0,0.0,0.0,0.0
1354825674829189702,808,1354825674829189702,0.55129104671,0.549102719221,0.284134074324,0.548502629941,0.323482173952,0.363159794037,0.00278841676883,0.001004091,130.002100999,116.681193235,0.0,-5200.0,-200.0,-500.0,32.0,0.0,0.0,0.0,0.0
1354825674839184724,809,1354825674839184724,0.55492264465,0.551727324226,0.24506130251,0.551238984604,0.262493809415,0.360969054453,0.00368366004612,0.00099961,145.035461733,114.811821094,0.0,-5200.0,-200.0,-500.0,32.0,0.0,0.0,0.0,0.0
1354825674849184812,810,1354825674849184812,0.558532335195,0.554080867561,0.225397355744,0.553612526677,0.235343223509,0.35876406443,0.00491980851841,0.000999928,152.910971672,122.531127419,0.0,-5200.0,-200.0,-500.0,32.0,0.0,0.0,0.0,0.0
1354825674859169136,811,1354825674859169136,0.562119975839,0.55691841979,0.349309155502,0.556290715692,0.284468677813,0.356544911016,0.00582926014699,0.00098118,147.28865228,133.659181663,0.0,-5200.0,-200.0,-500.0,32.0,0.0,0.0,0.0,0.0
1354825674869184499,812,1354825674869184499,0.565685424949,0.560864910234,0.450830925582,0.559988817237,0.394007956649,0.354311681819,0.00569660771169,0.000995715,118.696773594,143.076652513,0.0,-5200.0,-200.0,-500.0,32.0,0.0,0.0,0.0,0.0
1354825674879226506,813,1354825674879226506,0.569228541767,0.565468754636,0.45543159195,0.564569213516,0.459091506397,0.352064465004,0.00465932825087,0.000998593,93.964987768,144.964469174,0.0,-5200.0,-200.0,-500.0,32.0,0.0,0.0,0.0,0.0
1354825674889260706,814,1354825674889260706,0.572749186417,0.569602453223,0.371928489275,0.56883918487,0.412141671004,0.349803349286,0.00391000154675,0.001036906,105.216868744,136.786067815,0.0,-5200.0,-200.0,-500.0,32.0,0.0,0.0,0.0,0.0
1354825674899172238,815,1354825674899172238,0.57624721991,0.573011318647,0.303051219128,0.572397281075,0.343782141983,0.347528423931,0.00384993883476,0.000981274,123.432789215,126.414311177,0.0,-5200.0,-200.0,-500.0,32.0,0.0,0.0,0.0,0.0
1354825674909229616,816,1354825674909229616,0.57972250415,0.57583345146,0.259988400424,0.575291125423,0.280728930689,0.345239778749,0.00443137872735,0.001002178,138.996708348,120.243781349,0.0,-5200.0,-200.0,-500.0,32.0,0.0,0.0,0.0,0.0
1354825674919204141,817,1354825674919204141,0.583174901937,0.578176169836,0.240541889968,0.577718603024,0.235002810709,0.342937504092,0.00545629891346,0.001006313,149.420771501,123.954944616,0.0,-5200.0,-200.0,-500.0,32.0,0.0,0.0,0.0,0.0
1354825674929245167,818,1354825674929245167,0.586604276978,0.580450883571,0.222473930557,0.579985253067,0.226527546996,0.340621690849,0.00661902391143,0.001015315,153.938422526,131.389729937,0.0,-5200.0,-200.0,-500.0,32.0,0.0,0.0,0.0,0.0
1354825674939203547,819,1354825674939203547,0.590010493887,0.583427923439,0.357520804624,0.582746955128,0.298915716523,0.338292430445,0.00726353875885,0.00098741,143.228410371,139.326237529,0.0,-5200.0,-200.0,-500.0,32.0,0.0,0.0,0.0,0.0
1354825674949155191,820,1354825674949155191,0.593393418191,0.587323173333,0.446135180335,0.58648738867,0.391035178461,0.335949814835,0.00690602952137,0.001000602,117.605985673,146.412435988,0.0,-5200.0,-200.0,-500.0,32.0,0.0,0.0,0.0,0.0
1354825674959190493,821,1354825674959190493,0.596752916339,0.591470918624,0.390213194156,0.590664043872,0.413449191448,0.333593936502,0.00608887246707,0.001000016,107.145243299,145.827947487,0.0,-5200.0,-200.0,-500.0,32.0,0.0,0.0,0.0,0.0
1354825674969186166,822,1354825674969186166,0.600088855704,0.595085227466,0.317210813028,0.594418694473,0.361327768593,0.331224888452,0.00567016123122,0.000997553,119.80379125,138.28023603,0.0,-5200.0,-200.0,-500.0,32.0,0.0,0.0,0.0,0.0
1354825674979185407,823,1354825674979185407,0.603401104589,0.598032613006,0.27161210143,0.597481045005,0.294758958001,0.328842764209,0.0059200595842,0.001000641,135.934180768,128.985258831,0.0,-5200.0,-200.0,-500.0,32.0,0.0,0.0,0.0,0.0
1354825674989191539,824,1354825674989191539,0.606689532231,0.600444862504,0.194996379828,0.60000180516,0.241224714381,0.326447657818,0.00668772707148,0.001001124,147.343441167,126.588092733,0.0,-5200.0,-200.0,-500.0,32.0,0.0,0.0,0.0,0.0
1354825674999167583,825,1354825674999167583,0.609954008809,0.602603346814,0.207164238409,0.602203951012,0.21619309963,0.324039663832,0.00775005779656,0.00098301,153.501516289,131.572669529,0.0,-5200.0,-200.0,-500.0,32.0,0.0,0.0,0.0,0.0
1354825675009187384,826,1354825675009187384,0.613194405447,0.604968674738,0.256980394694,0.604460733225,0.23609494964,0.321618877315,0.0087336722222,0.001029878,153.84377574,139.380240141,0.0,-5200.0,-200.0,-500.0,32.0,0.0,0.0,0.0,0.0
1354825675019166593,827,1354825675019166593,0.616410594221,0.60834187442,0.397959852887,0.60760451895,0.338181761028,0.319185393836,0.00880607527134,0.000966787,133.108468671,146.050212819,0.0,-5200.0,-200.0,-500.0,32.0,0.0,0.0,0.0,0.0
1354825675029235895,828,1354825675029235895,0.619602448159,0.612357557106,0.386546850071,0.61154753371,0.39943022645,0.316739309463,0.00805491444855,0.001019285,112.687909475,150.000525125,0.0,-5200.0,-200.0,-500.0,32.0,0.0,0.0,0.0,0.0
